상호명,지점명,상권업종소분류명,표준산업분류명,행정동명,법정동명,지번주소,도로명주소,경도,위도
카페숲,,카페,커피 전문점,시흥5동,시흥동,서울특별시 금천구 시흥동 929-10,서울특별시 금천구 시흥대로40길 129,126.909939213116,37.4466892708074
매머드커피외대,,카페,커피 전문점,이문1동,이문동,서울특별시 동대문구 이문동 264-223,서울특별시 동대문구 천장산로7길 16,127.056961620734,37.5984928516124
포르마레,,카페,커피 전문점,성내1동,성내동,서울특별시 강동구 성내동 534-7,서울특별시 강동구 성내로9길 35,127.125070448044,37.5304744105399
카페브릿지,,카페,커피 전문점,여의동,여의도동,서울특별시 영등포구 여의도동 22,서울특별시 영등포구 여의대로 108,126.929094088335,37.5251836341679
더웨이유통할리스커피,,카페,커피 전문점,약수동,신당동,서울특별시 중구 신당동 368-66,서울특별시 중구 다산로 114,127.010407465389,37.5539516022101
이디야까치산로점,,카페,커피 전문점,화곡6동,화곡동,서울특별시 강서구 화곡동 1167,서울특별시 강서구 까치산로 182,126.85387186478,37.5533017090823
카페새싹,,카페,커피 전문점,상암동,상암동,서울특별시 마포구 상암동 1530,서울특별시 마포구 성암로13길 66,126.897809813793,37.5753449149129
더하우스1932,,카페,커피 전문점,중림동,만리동1가,서울특별시 중구 만리동1가 62-16,서울특별시 중구 만리재로35길 5,126.967414035773,37.5554125437227
홍콩다방홍대입구역점,,카페,커피 전문점,서강동,창전동,서울특별시 마포구 창전동 2-27,서울특별시 마포구 서강로11길 10,126.932956862046,37.5534212165495
티이,,카페,기타 비알코올 음료점업,신사동,신사동,서울특별시 강남구 신사동 521,서울특별시 강남구 강남대로162길 20,127.020302028057,37.5200015029666
러슬,,카페,커피 전문점,구의2동,구의동,서울특별시 광진구 구의동 612-10,서울특별시 광진구 자양로37길 63,127.085543420228,37.5486014905947
레츠그릭,,카페,기타 비알코올 음료점업,화곡1동,화곡동,서울특별시 강서구 화곡동 1074-15,서울특별시 강서구 화곡로26가길 18,126.839127915124,37.5407233989216
태산커피시그니쳐,,카페,커피 전문점,녹번동,녹번동,서울특별시 은평구 녹번동 176-6,서울특별시 은평구 응암로 347,126.922181388471,37.6021955121462
린덴,,카페,커피 전문점,망원1동,망원동,서울특별시 마포구 망원동 401-21,서울특별시 마포구 월드컵로23길 82-3,126.906052982136,37.5543373460791
포트캔커피영등포역남부점,,카페,커피 전문점,영등포본동,영등포동,서울특별시 영등포구 영등포동 618-549,서울특별시 영등포구 영신로19길 20,126.905637388332,37.5138587424306
비쥬,,카페,커피 전문점,발산1동,내발산동,서울특별시 강서구 내발산동 699-9,서울특별시 강서구 강서로47다길 17,126.834291410182,37.551929655953
문래커피클럽,,카페,커피 전문점,문래동,문래동6가,서울특별시 영등포구 문래동6가 8,서울특별시 영등포구 선유로 71,126.888859257233,37.5201715733046
애프터눈,,카페,커피 전문점,공릉1동,공릉동,서울특별시 노원구 공릉동 670-11,서울특별시 노원구 화랑로 449-7,127.076858436198,37.6186803186773
알베르금호,,카페,커피 전문점,금호4가동,금호동4가,서울특별시 성동구 금호동4가 173-9,서울특별시 성동구 금호로3길 14,127.024387498203,37.5476705127849
키쉬미뇽수유역사점,,카페,커피 전문점,수유3동,수유동,서울특별시 강북구 수유동 140,서울특별시 강북구 도봉로 338,127.025341101976,37.6377374244135
카페마차,,카페,커피 전문점,홍제1동,홍제동,서울특별시 서대문구 홍제동 156-7,서울특별시 서대문구 모래내로 468,126.946646241443,37.5859184588718
사이드에이원,,카페,커피 전문점,삼성1동,삼성동,서울특별시 강남구 삼성동 75-8,서울특별시 강남구 봉은사로 507,127.054276831911,37.5134844884181
페르비타,,카페,커피 전문점,장안2동,장안동,서울특별시 동대문구 장안동 310-4,서울특별시 동대문구 장한로 158,127.072175282708,37.5743843334153
샐러디서강대점,,카페,커피 전문점,대흥동,신수동,서울특별시 마포구 신수동 1-1,서울특별시 마포구 백범로 35,126.943045399174,37.5514936288891
카페화곡동,,카페,커피 전문점,화곡3동,화곡동,서울특별시 강서구 화곡동 1043-1,서울특별시 강서구 화곡로13길 26,126.833510653711,37.5410284541295
카페미크,,카페,커피 전문점,개포4동,개포동,서울특별시 강남구 개포동 1236,서울특별시 강남구 논현로18길 8,127.045638263014,37.4776610712324
미스홍대게스트하우스2,,카페,커피 전문점,서교동,서교동,서울특별시 마포구 서교동 358-135,서울특별시 마포구 홍익로 3-28,126.923174549539,37.5529089151644
어셈블,,카페,커피 전문점,번1동,번동,서울특별시 강북구 번동 417-48,서울특별시 강북구 한천로 1007,127.029198852968,37.6381927172336
빅브로,,카페,커피 전문점,장위3동,장위동,서울특별시 성북구 장위동 320,서울특별시 성북구 한천로 713,127.051701757032,37.6212109798833
더벤티명일역점,,카페,커피 전문점,명일1동,명일동,서울특별시 강동구 명일동 312-94,서울특별시 강동구 양재대로 1640,127.144240284774,37.5519518885283
매머드익스프레스당산이레빌딩점,,카페,커피 전문점,양평2동,양평동4가,서울특별시 영등포구 양평동4가 2,서울특별시 영등포구 선유동2로 57,126.896859894016,37.5338162535295
파스쿠찌강서NC,,카페,커피 전문점,등촌3동,등촌동,서울특별시 강서구 등촌동 689-1,서울특별시 강서구 강서로56길 17,126.840482624445,37.5599197053739
한남작업실,,카페,커피 전문점,한남동,한남동,서울특별시 용산구 한남동 745-2,서울특별시 용산구 이태원로55나길 7,126.99871182882,37.5365168697888
공차DDP,,카페,커피 전문점,광희동,을지로7가,서울특별시 중구 을지로7가 143,서울특별시 중구 을지로 281,127.010889465579,37.5680029265883
달리는커피,,카페,"피자, 햄버거, 샌드위치 및 유사 음식점업",진관동,진관동,서울특별시 은평구 진관동 62,서울특별시 은평구 통일로 1034,126.917521941043,37.6353467801933
목향커피호프,,카페,커피 전문점,구로2동,구로동,서울특별시 구로구 구로동 720-26,서울특별시 구로구 구로동로17길 9-12,126.88384190759,37.4879029462951
찰리스카페,,카페,커피 전문점,삼성1동,삼성동,서울특별시 강남구 삼성동 155-18,서울특별시 강남구 테헤란로83길 27,127.056694926786,37.5091967810908
키엘리커피,,카페,커피 전문점,서초3동,서초동,서울특별시 서초구 서초동 1466-13,서울특별시 서초구 남부순환로 2363,127.009405108688,37.4791289207925
프롬하츠커피신설역점,,카페,커피 전문점,용신동,신설동,서울특별시 동대문구 신설동 89-79,서울특별시 동대문구 왕산로 25,127.026113100901,37.5768155585928
낫컴플리트,,카페,커피 전문점,혜화동,명륜2가,서울특별시 종로구 명륜2가 150-2,서울특별시 종로구 성균관로 12-5,126.998096085946,37.5842038954751
베로아로스터리망우점,,카페,커피 전문점,망우본동,망우동,서울특별시 중랑구 망우동 202-1,서울특별시 중랑구 망우로 464,127.103666096178,37.6001993497437
플랜터PLANTER247,,카페,커피 전문점,동선동,동선동3가,서울특별시 성북구 동선동3가 247,서울특별시 성북구 보문로34가길 1,127.019772168854,37.5915762016935
프랑세즈,,카페,커피 전문점,흑석동,흑석동,서울특별시 동작구 흑석동 8-37,서울특별시 동작구 현충로 96,126.964256794288,37.5079268166201
인디고플레이스,,카페,커피 전문점,화양동,화양동,서울특별시 광진구 화양동 29-22,서울특별시 광진구 능동로 154,127.073088363325,37.5445487607629
파리크라상잠바주스서울대,,카페,기타 비알코올 음료점업,이화동,연건동,서울특별시 종로구 연건동 28-21,서울특별시 종로구 대학로 101,126.997184076959,37.5804478224547
쁠랑,,카페,커피 전문점,서초3동,서초동,서울특별시 서초구 서초동 1576-1,서울특별시 서초구 반포대로22길 100,127.013576502948,37.4912199513645
매머드익스프레스보라매,,카페,커피 전문점,신대방2동,신대방동,서울특별시 동작구 신대방동 724,서울특별시 동작구 여의대방로22길 121,126.925091378122,37.4982150166568
겟블랙,,카페,커피 전문점,합정동,합정동,서울특별시 마포구 합정동 370-4,서울특별시 마포구 성지3길 22,126.914189331872,37.5466094550632
카페,,카페,커피 전문점,휘경1동,휘경동,서울특별시 동대문구 휘경동 150-25,서울특별시 동대문구 휘경로19길 11,127.06496434262,37.5951686029838
카페몰리한겨레점,,카페,커피 전문점,공덕동,공덕동,서울특별시 마포구 공덕동 116-25,서울특별시 마포구 효창목길 6,126.958805326967,37.5469752676018
어뮤즈그라운드,,카페,기타 비알코올 음료점업,남가좌2동,남가좌동,서울특별시 서대문구 남가좌동 338-40,서울특별시 서대문구 가재울로4길 67,126.924702575625,37.5765210193234
카페드림,,카페,커피 전문점,대학동,신림동,서울특별시 관악구 신림동 산56-1,서울특별시 관악구 관악로 1,126.959279517057,37.4680295491979
타임카페,,카페,커피 전문점,하계1동,하계동,서울특별시 노원구 하계동 274-1,서울특별시 노원구 공릉로59길 15,127.0710600064,37.6331415422171
압구정볶는커피,,카페,커피 전문점,대치1동,대치동,서울특별시 강남구 대치동 670,서울특별시 강남구 선릉로 206,127.055651897494,37.4914286178939
달솜,,카페,커피 전문점,성산2동,성산동,서울특별시 마포구 성산동 53-14,서울특별시 마포구 증산로 87,126.89500833334,37.5703360046612
가타커피,,카페,커피 전문점,송파1동,송파동,서울특별시 송파구 송파동 45-11,서울특별시 송파구 백제고분로45길 5-18,127.109884984844,37.5087175323614
카페리빈갤러리아포레점,,카페,커피 전문점,성수1가1동,성수동1가,서울특별시 성동구 성수동1가 685-696,서울특별시 성동구 서울숲2길 32-14,127.042893398502,37.5456684606712
커피베이행당점,,카페,커피 전문점,행당1동,행당동,서울특별시 성동구 행당동 140,서울특별시 성동구 고산자로6길 40,127.035455817503,37.5581685449559
제이어스에프엔비,,카페,개인 간병 및 유사 서비스업,구로5동,구로동,서울특별시 구로구 구로동 25,서울특별시 구로구 새말로 94,126.890479763955,37.5054637698116
하라핸즈커피,,카페,커피 전문점,잠실본동,잠실동,서울특별시 송파구 잠실동 182,서울특별시 송파구 올림픽로12길 4-15,127.082178358414,37.5110644986191
유로스커피로스터스센터필드점,,카페,커피 전문점,역삼1동,역삼동,서울특별시 강남구 역삼동 677-18,서울특별시 강남구 테헤란로37길 7,127.040624992691,37.5027779897681
아리스타과일,,카페,커피 전문점,명동,을지로2가,서울특별시 중구 을지로2가 1-1,서울특별시 중구 을지로 58,126.983974029951,37.5661074219495
후식,,카페,커피 전문점,망우본동,망우동,서울특별시 중랑구 망우동 495,서울특별시 중랑구 용마산로115길 109,127.094141411118,37.597441516093
빽다방KBS본관점,,카페,커피 전문점,여의동,여의도동,서울특별시 영등포구 여의도동 17,서울특별시 영등포구 의사당대로 38,126.91867384416,37.5260167593971
디어마이커피,,카페,커피 전문점,양평2동,양평동3가,서울특별시 영등포구 양평동3가 90-1,서울특별시 영등포구 선유로43가길 24,126.891996157818,37.5314190039604
브루테크네,,카페,커피 전문점,여의동,여의도동,서울특별시 영등포구 여의도동 36-2,서울특별시 영등포구 국제금융로6길 33,126.926894442607,37.520784593337
터치183,,카페,커피 전문점,방이1동,방이동,서울특별시 송파구 방이동 183,서울특별시 송파구 위례성대로 124,127.125474486499,37.5123391024089
카페마인드어스,,카페,커피 전문점,사당3동,사당동,서울특별시 동작구 사당동 1159,서울특별시 동작구 사당로23길 112,126.973456680751,37.487787537494
아리카페,,카페,커피 전문점,안암동,안암동5가,서울특별시 성북구 안암동5가 1-2,서울특별시 성북구 안암로 145,127.031701809695,37.5884849860916
매머드익스프레스,,카페,커피 전문점,상봉2동,상봉동,서울특별시 중랑구 상봉동 81-5,서울특별시 중랑구 망우로 346,127.09135554891,37.5974471326209
발렙,,카페,커피 전문점,역삼1동,역삼동,서울특별시 강남구 역삼동 700-14,서울특별시 강남구 언주로98길 12,127.04263366211,37.5049027558473
비바체,,카페,커피 전문점,구의3동,구의동,서울특별시 광진구 구의동 200-19,서울특별시 광진구 광나루로52길 11,127.094789510288,37.5411038928542
빈웍스,,카페,커피 전문점,구로3동,구로동,서울특별시 구로구 구로동 184-1,서울특별시 구로구 디지털로33길 12,126.896142027835,37.4865407988684
광흥창카페,,카페,커피 전문점,서강동,창전동,서울특별시 마포구 창전동 108-3,서울특별시 마포구 서강로1길 12-6,126.931211002312,37.5488731930567
레스티오도서관점,,카페,커피 전문점,화양동,화양동,서울특별시 광진구 화양동 1,서울특별시 광진구 능동로 120,127.074695272526,37.5390559369817
카페그린,,카페,커피 전문점,왕십리도선동,하왕십리동,서울특별시 성동구 하왕십리동 1070,서울특별시 성동구 왕십리로 410,127.024062147888,37.5665447401941
둔촌커피,,카페,커피 전문점,둔촌2동,둔촌동,서울특별시 강동구 둔촌동 50-1,서울특별시 강동구 명일로 171,127.14460246017,37.5341226127962
코드101,,카페,커피 전문점,보라매동,봉천동,서울특별시 관악구 봉천동 972-1,서울특별시 관악구 보라매로 7,126.927367388232,37.4901082487637
이디야뚝섬유원지역점,,카페,커피 전문점,자양4동,자양동,서울특별시 광진구 자양동 65-1,서울특별시 광진구 능동로 21,127.067227779555,37.5335458217646
스멜비,,카페,커피 전문점,왕십리2동,하왕십리동,서울특별시 성동구 하왕십리동 989-25,서울특별시 성동구 무학봉15다길 4,127.030535270573,37.5623090976687
카페인중독,,카페,커피 전문점,수유3동,수유동,서울특별시 강북구 수유동 188-2,서울특별시 강북구 한천로 1081,127.022945107968,37.6424660535183
바디쉐프지밸리몰점,,카페,기타 비알코올 음료점업,구로3동,구로동,서울특별시 구로구 구로동 188-25,서울특별시 구로구 디지털로 300,126.89652780139,37.4849135072657
차팅,,카페,기타 비알코올 음료점업,연희동,연희동,서울특별시 서대문구 연희동 79-8,서울특별시 서대문구 연희로26길 10,126.936144047423,37.5728313228951
카페게이트망원역점,,카페,커피 전문점,망원1동,망원동,서울특별시 마포구 망원동 378-11,서울특별시 마포구 월드컵로 67,126.910467365532,37.5550809747101
토프레소서울대,,카페,커피 전문점,중앙동,봉천동,서울특별시 관악구 봉천동 873-30,서울특별시 관악구 봉천로 451,126.950245625935,37.4826818528762
카페샌프란시스코,,카페,커피 전문점,회현동,남대문로5가,서울특별시 중구 남대문로5가 827,서울특별시 중구 소월로2길 30,126.975593738492,37.5539880665663
로프커피,,카페,커피 전문점,군자동,군자동,서울특별시 광진구 군자동 464-2,서울특별시 광진구 동일로 304,127.073461978063,37.5582476577619
카페메이,,카페,커피 전문점,중화2동,중화동,서울특별시 중랑구 중화동 307-68,서울특별시 중랑구 동일로 833-8,127.078217874458,37.6049050097517
달리는커피강남,,카페,"피자, 햄버거, 샌드위치 및 유사 음식점업",논현1동,논현동,서울특별시 강남구 논현동 158-32,서울특별시 강남구 학동로20길 67,127.026603650287,37.5095112913109
타이거,,카페,커피 전문점,수서동,수서동,서울특별시 강남구 수서동 713,서울특별시 강남구 밤고개로1길 10,127.101830759377,37.4880132769347
에그카페,,카페,커피 전문점,오류1동,오류동,서울특별시 구로구 오류동 13-11,서울특별시 구로구 경인로19길 35,126.84233372584,37.4972978137498
현커피숍,,카페,기타 비알코올 음료점업,면목7동,면목동,서울특별시 중랑구 면목동 523-10,서울특별시 중랑구 사가정로 429,127.092329063015,37.5806951697169
장수카페,,카페,커피 전문점,군자동,군자동,서울특별시 광진구 군자동 65-3,서울특별시 광진구 군자로 140,127.074995443774,37.5541418846868
에이그레이트까페,,카페,커피 전문점,가산동,가산동,서울특별시 금천구 가산동 371-59,서울특별시 금천구 가산디지털1로 149,126.88184149489,37.4787293980852
슬로우포레스트,,카페,기타 비알코올 음료점업,삼청동,팔판동,서울특별시 종로구 팔판동 100-2,서울특별시 종로구 삼청로5길 20,126.980758144592,37.5828030120679
지체장애인협회강동구지회강동꿈드래마켓,,카페,기타 비알코올 음료점업,암사2동,암사동,서울특별시 강동구 암사동 139-2,서울특별시 강동구 올림픽로 875,127.130816567758,37.5598461786543
튤립제과,,카페,커피 전문점,서강동,창전동,서울특별시 마포구 창전동 2-41,서울특별시 마포구 서강로11길 15,126.932661872512,37.5534726126148
어치브먼트,,카페,커피 전문점,휘경2동,휘경동,서울특별시 동대문구 휘경동 294-163,서울특별시 동대문구 망우로18다길 19,127.060884022039,37.5864501470011
컴포즈커피,,카페,커피 전문점,신정3동,신정동,서울특별시 양천구 신정동 1326,서울특별시 양천구 중앙로43길 14,126.851320869,37.5204071233706
더벤티을지로6가점,,카페,커피 전문점,광희동,을지로6가,서울특별시 중구 을지로6가 23-19,서울특별시 중구 을지로 252-2,127.006171403513,37.5661251739343
소적두,,카페,커피 전문점,성수1가2동,성수동1가,서울특별시 성동구 성수동1가 13-316,서울특별시 성동구 상원6길 8,127.049046371595,37.5485925212476
하이히얼,,카페,커피 전문점,석관동,석관동,서울특별시 성북구 석관동 384-19,서울특별시 성북구 화랑로40길 37,127.063545968176,37.6134665258125
비기프티드,,카페,커피 전문점,위례동,거여동,서울특별시 송파구 거여동 654,서울특별시 송파구 위례송파로 124,127.146617438364,37.4843625648223
클러스터,,카페,커피 전문점,석촌동,석촌동,서울특별시 송파구 석촌동 243-14,서울특별시 송파구 가락로5길 11,127.101751535987,37.5002941325331
카페메이,,카페,커피 전문점,성수2가3동,성수동2가,서울특별시 성동구 성수동2가 299-155,서울특별시 성동구 성수일로12길 19-1,127.053416885105,37.548420397819
24시무인셀프카페,,카페,커피 전문점,사당2동,사당동,서울특별시 동작구 사당동 71-1,서울특별시 동작구 동작대로35길 21,126.981091355693,37.4909712733964
압생트인서울,,카페,커피 전문점,삼성2동,삼성동,서울특별시 강남구 삼성동 39-8,서울특별시 강남구 선릉로112길 19,127.045172353855,37.5116001206261
광합성카페,,카페,커피 전문점,망원1동,망원동,서울특별시 마포구 망원동 57-36,서울특별시 마포구 월드컵로19길 8,126.908446134584,37.5570896401042
로쿠커피,,카페,커피 전문점,구로3동,구로동,서울특별시 구로구 구로동 222-14,서울특별시 구로구 디지털로26길 61,126.895283370784,37.4811174778094
박스프레소,,카페,커피 전문점,서초2동,서초동,서울특별시 서초구 서초동 1362-18,서울특별시 서초구 강남대로37길 24,127.032293375453,37.4849502133356
빽다방수서역점,,카페,커피 전문점,수서동,수서동,서울특별시 강남구 수서동 713,서울특별시 강남구 밤고개로1길 10,127.101830759377,37.4880132769347
하윌라,,카페,커피 전문점,성내1동,성내동,서울특별시 강동구 성내동 434-48,서울특별시 강동구 성안로 37,127.130233448574,37.5272326991206
봉카페,,카페,커피 전문점,서교동,서교동,서울특별시 마포구 서교동 327-35,서울특별시 마포구 와우산로29길 4-14,126.929722218666,37.5548516234431
뮤츄얼,,카페,커피 전문점,성북동,성북동,서울특별시 성북구 성북동 184-84,서울특별시 성북구 성북로 24,127.004504192525,37.5901779483411
만랩커피동평화패션타운점,,카페,커피 전문점,신당동,신당동,서울특별시 중구 신당동 217-102,서울특별시 중구 마장로1길 28-21,127.013204097685,37.56931078923
카페시카고,,카페,커피 전문점,휘경2동,휘경동,서울특별시 동대문구 휘경동 286-1,서울특별시 동대문구 망우로18가길 3,127.062433327723,37.5893097628269
홍콩다방홍대입구역점,,카페,기타 비알코올 음료점업,서교동,동교동,서울특별시 마포구 동교동 166-11,서울특별시 마포구 양화로18길 9,126.924680749371,37.5567790903014
간삼기획,,카페,커피 전문점,다산동,신당동,서울특별시 중구 신당동 407-27,서울특별시 중구 동호로20다길 16,127.009361869153,37.5585561854808
크로플바니,,카페,커피 전문점,송천동,미아동,서울특별시 강북구 미아동 415-5,서울특별시 강북구 솔샘로64길 2,127.027198008787,37.6169748638001
더벤티정릉,,카페,커피 전문점,정릉2동,정릉동,서울특별시 성북구 정릉동 227-73,서울특별시 성북구 서경로 77,127.014715751191,37.6100774814077
카페마실로,,카페,커피 전문점,대림3동,대림동,서울특별시 영등포구 대림동 744-12,서울특별시 영등포구 도림로53길 34-1,126.899775954138,37.4985856465259
카페이퍼스,,카페,커피 전문점,양재1동,양재동,서울특별시 서초구 양재동 68-7,서울특별시 서초구 바우뫼로33길 7-8,127.037166741109,37.477907711197
마라나타,,카페,커피 전문점,수궁동,궁동,서울특별시 구로구 궁동 189-69,서울특별시 구로구 부일로 969,126.834872067949,37.4935121644522
에그허그,,카페,커피 전문점,광장동,광장동,서울특별시 광진구 광장동 245-7,서울특별시 광진구 천호대로143길 8-5,127.10326249448,37.5460432392924
콘레드커피,,카페,커피 전문점,월계1동,월계동,서울특별시 노원구 월계동 465-11,서울특별시 노원구 광운로 27,127.058307248306,37.6202096647373
투썸플레이스,,카페,커피 전문점,신길4동,신길동,서울특별시 영등포구 신길동 4902-7,서울특별시 영등포구 신길로 162,126.911352638866,37.5066491383502
그린랩,,카페,커피 전문점,성수1가2동,성수동1가,서울특별시 성동구 성수동1가 685-450,서울특별시 성동구 서울숲2길 18-11,127.040558518063,37.5468388964723
엠티엘컴퍼니,,카페,커피 전문점,한남동,한남동,서울특별시 용산구 한남동 743-8,서울특별시 용산구 이태원로49길 24,126.999043173573,37.5371233805831
빽다방화양,,카페,커피 전문점,성수2가3동,성수동2가,서울특별시 성동구 성수동2가 281-16,서울특별시 성동구 아차산로17길 57,127.065707787841,37.5474550508205
컴포즈커피문래SK,,카페,커피 전문점,문래동,문래동6가,서울특별시 영등포구 문래동6가 19,서울특별시 영등포구 선유로9길 10,126.887187035096,37.5177500478573
바그,,카페,커피 전문점,원효로1동,원효로2가,서울특별시 용산구 원효로2가 76-12,서울특별시 용산구 원효로63길 18,126.963578154782,37.5373670767074
레인보우식스,,카페,커피 전문점,서교동,동교동,서울특별시 마포구 동교동 177-17,서울특별시 마포구 와우산로37길 32,126.929256518793,37.5565503654321
카페그대로,,카페,커피 전문점,신길6동,신길동,서울특별시 영등포구 신길동 3962-6,서울특별시 영등포구 대방천로 211-8,126.914624314257,37.498632904479
팔공티,,카페,기타 비알코올 음료점업,신촌동,대현동,서울특별시 서대문구 대현동 60-8,서울특별시 서대문구 이화여대길 48,126.945858923752,37.5590424717547
아임그린떡케이크하우스,,카페,커피 전문점,성북동,성북동,서울특별시 성북구 성북동 217-25,서울특별시 성북구 성북로23나길 4,126.99282373569,37.5923224414141
어버드커피,,카페,커피 전문점,월곡2동,상월곡동,서울특별시 성북구 상월곡동 23-157,서울특별시 성북구 화랑로 177-1,127.050063926201,37.6074839873517
와리가리커피,,카페,커피 전문점,논현1동,논현동,서울특별시 강남구 논현동 148-10,서울특별시 강남구 학동로20길 42,127.027547099771,37.5108976740029
루나모디카,,카페,커피 전문점,대치4동,대치동,서울특별시 강남구 대치동 901-70,서울특별시 강남구 역삼로77길 21,127.055937272752,37.5037934033906
트리플에이커피공릉역점,,카페,커피 전문점,공릉1동,공릉동,서울특별시 노원구 공릉동 323-10,서울특별시 노원구 동일로 1093,127.07171869013,37.627551278099
몽바커피,,카페,커피 전문점,역삼1동,역삼동,서울특별시 강남구 역삼동 646-11,서울특별시 강남구 테헤란로21길 8,127.034577100333,37.5007914478071
얀앤욘,,카페,커피 전문점,대흥동,대흥동,서울특별시 마포구 대흥동 20-10,서울특별시 마포구 대흥로21길 11,126.945170268979,37.5532966927114
커피베이남영역점,,카페,커피 전문점,남영동,갈월동,서울특별시 용산구 갈월동 101-49,서울특별시 용산구 한강대로 259,126.972391550719,37.5415708874019
온더코너,,카페,커피 전문점,화양동,화양동,서울특별시 광진구 화양동 44-1,서울특별시 광진구 아차산로21길 44,127.065911850635,37.5437983995317
지앤,,카페,커피 전문점,대치2동,대치동,서울특별시 강남구 대치동 945-23,서울특별시 강남구 영동대로85길 20-7,127.061604134108,37.5073706982219
커피이야기,,카페,커피 전문점,서강동,창전동,서울특별시 마포구 창전동 1-24,서울특별시 마포구 서강로 115,126.933513405242,37.5532820785805
지니앤캐터피스,,카페,커피 전문점,송천동,미아동,서울특별시 강북구 미아동 330-76,서울특별시 강북구 도봉로19길 10-3,127.028505105208,37.6183732297168
카페유틸리티,,카페,커피 전문점,문정2동,문정동,서울특별시 송파구 문정동 639-5,서울특별시 송파구 정의로7길 13,127.115104425717,37.4852841052855
케인다,,카페,커피 전문점,오금동,오금동,서울특별시 송파구 오금동 129-19,서울특별시 송파구 마천로26길 10,127.138598635585,37.5022535521869
카페달싸,,카페,커피 전문점,당산1동,당산동3가,서울특별시 영등포구 당산동3가 388-1,서울특별시 영등포구 당산로33길 9,126.895634179343,37.5271641282477
메가엠지씨커피노량진점,,카페,커피 전문점,노량진1동,노량진동,서울특별시 동작구 노량진동 97-1,서울특별시 동작구 노량진로16길 14,126.943600364789,37.5129609443992
더쌍화피카디리,,카페,기타 비알코올 음료점업,종로1.2.3.4가동,돈의동,서울특별시 종로구 돈의동 137,서울특별시 종로구 돈화문로5가길 1,126.991208911517,37.5710170721997
카페레프kafferep,,카페,커피 전문점,송파1동,송파동,서울특별시 송파구 송파동 118-39,서울특별시 송파구 백제고분로44길 25,127.113077888662,37.506533954026
남산#52LAB,,카페,커피 전문점,명동,회현동3가,서울특별시 중구 회현동3가 9-15,서울특별시 중구 퇴계로14길 19,126.983767018394,37.5596812079139
유끼노하나,,카페,커피 전문점,장안2동,장안동,서울특별시 동대문구 장안동 312-9,서울특별시 동대문구 장한로36길 10,127.0728056136,37.5774168024955
스윗스마일,,카페,커피 전문점,창2동,창동,서울특별시 도봉구 창동 628-20,서울특별시 도봉구 도봉로104길 53,127.035012916657,37.6433312594191
이디야화곡본동,,카페,커피 전문점,화곡본동,화곡동,서울특별시 강서구 화곡동 98-83,서울특별시 강서구 까치산로4길 11,126.844242144004,37.5422152230714
카페64,,카페,커피 전문점,공릉2동,공릉동,서울특별시 노원구 공릉동 1-1,서울특별시 노원구 화랑로 574,127.098682113822,37.6237506954407
더바른차담소,,카페,커피 전문점,면목4동,면목동,서울특별시 중랑구 면목동 718-2,서울특별시 중랑구 동일로 467,127.079833074975,37.5721466015504
지온에프앤비,,카페,커피 전문점,삼각산동,미아동,서울특별시 강북구 미아동 1357-10,서울특별시 강북구 삼양로19길 132,127.016035647562,37.6164948683448
메가엠지씨커피배봉,,카페,커피 전문점,장안2동,장안동,서울특별시 동대문구 장안동 111-8,서울특별시 동대문구 한천로 189,127.067862705243,37.5779635547069
너섬카페,,카페,커피 전문점,여의동,여의도동,서울특별시 영등포구 여의도동 41-1,서울특별시 영등포구 국제금융로7길 22,126.933058833223,37.5232372217592
오피커피,,카페,커피 전문점,상계2동,상계동,서울특별시 노원구 상계동 194-13,서울특별시 노원구 노원로26나길 12,127.070510887705,37.6535727218722
카페줌마,,카페,커피 전문점,중화1동,중화동,서울특별시 중랑구 중화동 287-7,서울특별시 중랑구 동일로 790,127.079817148662,37.6010339948961
커피다동,,카페,커피 전문점,명동,다동,서울특별시 중구 다동 167,서울특별시 중구 다동길 22-1,126.980499755489,37.567708355381
윈썸,,카페,커피 전문점,도곡1동,도곡동,서울특별시 강남구 도곡동 954-3,서울특별시 강남구 강남대로44길 14,127.034938956134,37.4858548895734
컴포즈커피신림,,카페,커피 전문점,미성동,신림동,서울특별시 관악구 신림동 608-38,서울특별시 관악구 난우길 14,126.918831803061,37.4742800955883
이디야커피하월곡동점,,카페,커피 전문점,월곡2동,하월곡동,서울특별시 성북구 하월곡동 67-37,서울특별시 성북구 오패산로 16,127.03747377967,37.6036426571343
카페474-1,,카페,커피 전문점,당산1동,당산동3가,서울특별시 영등포구 당산동3가 474-1,서울특별시 영등포구 당산로27길 23-1,126.893660165571,37.5252354449477
뉴타입그루브,,카페,커피 전문점,사당3동,사당동,서울특별시 동작구 사당동 260-8,서울특별시 동작구 사당로17라길 8,126.972401631756,37.485561775161
앙크인베스트먼트이디야커피국회대로점,,카페,커피 전문점,여의동,여의도동,서울특별시 영등포구 여의도동 14-3,서울특별시 영등포구 국회대로72길 4,126.919901437143,37.5303259671253
더플랜오,,카페,커피 전문점,양재1동,양재동,서울특별시 서초구 양재동 97-5,서울특별시 서초구 양재천로 103-1,127.04012403835,37.4765261209652
호랑이초밥,,일식 회/초밥,커피 전문점,당산1동,당산동3가,서울특별시 영등포구 당산동3가 558-2,서울특별시 영등포구 당산로31길 33,126.892741773514,37.5269027740913
조해산업디앤엠,,카페,커피 전문점,금호1가동,금호동1가,서울특별시 성동구 금호동1가 128-1,서울특별시 성동구 행당로 35,127.023465575146,37.5558804392212
매머드익스프레스상암IT,,카페,커피 전문점,상암동,상암동,서울특별시 마포구 상암동 1590,서울특별시 마포구 월드컵북로 434,126.886033316208,37.5816136801339
국민우유집,,카페,커피 전문점,동선동,동선동4가,서울특별시 성북구 동선동4가 102-1,서울특별시 성북구 아리랑로2길 24,127.017582037795,37.5936574164904
드림하이,,카페,커피 전문점,세곡동,세곡동,서울특별시 강남구 세곡동 615,서울특별시 강남구 헌릉로569길 21-30,127.100710807682,37.466352208209
공차구로NC,,카페,커피 전문점,구로5동,구로동,서울특별시 구로구 구로동 573,서울특별시 구로구 구로중앙로 146-1,126.882758973119,37.5006334843974
매머드익스프레스구로대명벨리온점,,카페,커피 전문점,구로2동,구로동,서울특별시 구로구 구로동 614-50,서울특별시 구로구 경인로53가길 10,126.874374235676,37.5031849283472
카페홍,,카페,커피 전문점,천호2동,천호동,서울특별시 강동구 천호동 357-6,서울특별시 강동구 올림픽로 682-6,127.125047480013,37.5421248931294
홈이디저트,,카페,기타 비알코올 음료점업,개봉1동,개봉동,서울특별시 구로구 개봉동 452-2,서울특별시 구로구 고척로52길 86,126.855673637408,37.5013112845497
히든커피,,카페,커피 전문점,사직동,당주동,서울특별시 종로구 당주동 40,서울특별시 종로구 새문안로5길 11,126.974712906067,37.5711903188598
익스트림커피,,카페,커피 전문점,광희동,을지로7가,서울특별시 중구 을지로7가 143,서울특별시 중구 을지로 281,127.010889465579,37.5680029265883
여가생활,,카페,기타 비알코올 음료점업,압구정동,신사동,서울특별시 강남구 신사동 646-15,서울특별시 강남구 언주로164길 35-6,127.036598953895,37.5256319793831
커피온리팔공티,,카페,커피 전문점,성수2가3동,성수동2가,서울특별시 성동구 성수동2가 315-31,서울특별시 성동구 연무장7길 8-1,127.05462326859,37.5434022045114
카페하울링,,카페,커피 전문점,서교동,동교동,서울특별시 마포구 동교동 184-14,서울특별시 마포구 와우산로 170,126.931100097637,37.5558462390625
메가엠지씨커피금호역점,,카페,커피 전문점,금호4가동,금호동4가,서울특별시 성동구 금호동4가 1202,서울특별시 성동구 장터길 30,127.019129767293,37.5481856028657
쥬씨현대,,카페,기타 비알코올 음료점업,중앙동,봉천동,서울특별시 관악구 봉천동 888-35,서울특별시 관악구 양녕로 44,126.947090975825,37.4859065763938
앰퍼샌드컴퍼니,,카페,커피 전문점,종로1.2.3.4가동,익선동,서울특별시 종로구 익선동 166-6,서울특별시 종로구 돈화문로11다길 27,126.990372912512,37.5734066956355
브루다그랑서울,,카페,커피 전문점,종로1.2.3.4가동,청진동,서울특별시 종로구 청진동 70,서울특별시 종로구 종로 33,126.981417776698,37.5709510178487
카페루,,카페,커피 전문점,홍제3동,홍제동,서울특별시 서대문구 홍제동 286-1,서울특별시 서대문구 포방터길 27,126.94874153642,37.59794794221
에이치엠커피,,카페,커피 전문점,연남동,연남동,서울특별시 마포구 연남동 487-378,서울특별시 마포구 성미산로 97,126.918114830714,37.5615757011072
플로리안,,카페,커피 전문점,가락본동,가락동,서울특별시 송파구 가락동 80,서울특별시 송파구 송파대로28길 27,127.120080194832,37.4948815412923
피자레볼루션이태원점,,카페,기타 비알코올 음료점업,이태원1동,이태원동,서울특별시 용산구 이태원동 127-1,서울특별시 용산구 우사단로 47,126.995470911753,37.5343448524858
데이데이,,카페,기타 비알코올 음료점업,동선동,동선동1가,서울특별시 성북구 동선동1가 2-2,서울특별시 성북구 동소문로22길 14,127.017576803461,37.592332843677
에이치엘파트너즈,,카페,커피 전문점,서초3동,서초동,서울특별시 서초구 서초동 1456-3,서울특별시 서초구 남부순환로323길 56-3,127.013676367189,37.483624884908
리스펙커피,,카페,커피 전문점,방화1동,마곡동,서울특별시 강서구 마곡동 739-4,서울특별시 강서구 마곡서1로 115-1,126.818553689727,37.5666942814395
타미하우스,,카페,커피 전문점,서초1동,서초동,서울특별시 서초구 서초동 1425-18,서울특별시 서초구 남부순환로333길 13,127.019988924317,37.4833800666938
더데이즈커피,,카페,커피 전문점,도곡2동,도곡동,서울특별시 강남구 도곡동 413-3,서울특별시 강남구 논현로36길 14,127.04293544029,37.4848026259391
영,,카페,커피 전문점,암사1동,암사동,서울특별시 강동구 암사동 488-16,서울특별시 강동구 구천면로 311,127.134638196451,37.5474757495758
힐,,카페,커피 전문점,구의3동,구의동,서울특별시 광진구 구의동 596-1,서울특별시 광진구 뚝섬로66길 7,127.090308640812,37.533635767209
매머드익스프레스가산IT프리미어,,카페,커피 전문점,가산동,가산동,서울특별시 금천구 가산동 345-50,서울특별시 금천구 가산디지털1로 88,126.885441067338,37.4738797308772
"카페,숨",,카페,커피 전문점,상도1동,상도동,서울특별시 동작구 상도동 463-11,서울특별시 동작구 상도로 329,126.951691081169,37.4989946951539
그릿커피랩,,카페,커피 전문점,청룡동,봉천동,서울특별시 관악구 봉천동 1566-24,서울특별시 관악구 쑥고개로 99,126.947692495528,37.4792982165204
무드쉐어,,카페,커피 전문점,공릉1동,공릉동,서울특별시 노원구 공릉동 589-16,서울특별시 노원구 공릉로 119-23,127.077900402211,37.6214456488859
벤티프레소한화메트로,,카페,커피 전문점,가산동,가산동,서울특별시 금천구 가산동 554-2,서울특별시 금천구 가산디지털2로 43-14,126.881787162462,37.472511655768
본호미,,카페,커피 전문점,쌍문2동,쌍문동,서울특별시 도봉구 쌍문동 580,서울특별시 도봉구 도봉로 599,127.040067189013,37.6582575617991
줄리앤몰리,,카페,커피 전문점,자양1동,자양동,서울특별시 광진구 자양동 630-42,서울특별시 광진구 뚝섬로59길 67,127.083063896877,37.5348322021359
마마스플라워카페,,카페,기타 비알코올 음료점업,세곡동,세곡동,서울특별시 강남구 세곡동 422-5,서울특별시 강남구 헌릉로571길 56-3,127.098635283937,37.4678591937903
커피주는이불,,카페,김밥 및 기타 간이 음식점업,망우3동,망우동,서울특별시 중랑구 망우동 408-16,서울특별시 중랑구 용마공원로 22,127.101252789409,37.5937024812413
키헤이커피,,카페,커피 전문점,삼성2동,삼성동,서울특별시 강남구 삼성동 119-17,서울특별시 강남구 봉은사로78길 15,127.053245442368,37.5118543272053
사이커피로스터스,,카페,커피 전문점,독산3동,독산동,서울특별시 금천구 독산동 955-11,서울특별시 금천구 시흥대로152길 15,126.899810424832,37.476960834987
브루클린커피,,카페,커피 전문점,대방동,대방동,서울특별시 동작구 대방동 339-1,서울특별시 동작구 노량진로 26,126.928907012401,37.5129457489865
나띵베러,,카페,커피 전문점,역촌동,역촌동,서울특별시 은평구 역촌동 40-53,서울특별시 은평구 진흥로 59-1,126.920568903921,37.6024961356832
커피에반하다상계,,카페,커피 전문점,상계6.7동,상계동,서울특별시 노원구 상계동 735-2,서울특별시 노원구 동일로217가길 39,127.058187201984,37.6530604988785
과일에반하다프루타,,카페,커피 전문점,청파동,청파동3가,서울특별시 용산구 청파동3가 121-55,서울특별시 용산구 원효로97길 42,126.968836852913,37.5425040167374
사직단커피집,,카페,커피 전문점,사직동,사직동,서울특별시 종로구 사직동 9,서울특별시 종로구 사직로8길 4,126.968598872078,37.5745519999363
서울장애인부모연대노원지회디앤디카페,,카페,커피 전문점,상계10동,상계동,서울특별시 노원구 상계동 580-9,서울특별시 노원구 동일로 1449,127.058834042329,37.6574807269733
풀림,,카페,커피 전문점,신사동,신사동,서울특별시 강남구 신사동 557-17,서울특별시 강남구 도산대로25길 29,127.026459191755,37.5215031094264
24시셀프카페,,카페,커피 전문점,목4동,목동,서울특별시 양천구 목동 948,서울특별시 양천구 목동중앙본로1길 5,126.87040380009,37.5384948230851
카페051서울,,카페,커피 전문점,미아동,미아동,서울특별시 강북구 미아동 209-8,서울특별시 강북구 도봉로53길 7,127.025340448573,37.6265105229859
벌스,,카페,커피 전문점,연남동,연남동,서울특별시 마포구 연남동 246-22,서울특별시 마포구 성미산로23길 44,126.920574361997,37.5652654374451
썸띵크,,카페,커피 전문점,남가좌2동,남가좌동,서울특별시 서대문구 남가좌동 343-8,서울특별시 서대문구 거북골로 37-4,126.92368094351,37.5790706499001
카페봉봉,,카페,커피 전문점,거여1동,거여동,서울특별시 송파구 거여동 2-7,서울특별시 송파구 성내천로 136,127.143488203221,37.4989641856799
낭만커피숍,,카페,커피 전문점,청룡동,봉천동,서울특별시 관악구 봉천동 927-4,서울특별시 관악구 남부순환로 1732,126.94250950735,37.4820361895037
태양커피,,카페,커피 전문점,방배2동,방배동,서울특별시 서초구 방배동 453-33,서울특별시 서초구 방배천로 32,126.982649554327,37.4794692336749
페이퍼커피,,카페,커피 전문점,상암동,상암동,서울특별시 마포구 상암동 1605,서울특별시 마포구 월드컵북로 396,126.889812409598,37.5794868062638
토끼를따라간앨리스,,카페,커피 전문점,중화1동,중화동,서울특별시 중랑구 중화동 291-1,서울특별시 중랑구 동일로130길 50,127.082684578506,37.5999300123773
카페마레,,카페,커피 전문점,하계1동,하계동,서울특별시 노원구 하계동 158-5,서울특별시 노원구 공릉로 312,127.071987299926,37.6351040915228
카페코너,,카페,커피 전문점,잠원동,잠원동,서울특별시 서초구 잠원동 36-28,서울특별시 서초구 신반포로47길 36,127.019010984002,37.5123318457708
선주카페,,카페,커피 전문점,자양3동,자양동,서울특별시 광진구 자양동 126-1,서울특별시 광진구 강변북로 2230,127.067800920131,37.5284053347663
아이갓에브리씽강동아트,,카페,커피 전문점,상일1동,상일동,서울특별시 강동구 상일동 477,서울특별시 강동구 동남로 870,127.157376170565,37.5512804641438
플러스카페,,카페,커피 전문점,종로1.2.3.4가동,수송동,서울특별시 종로구 수송동 146-12,서울특별시 종로구 종로1길 36,126.978971792155,37.5734978535778
봉자라떼,,카페,커피 전문점,대학동,신림동,서울특별시 관악구 신림동 241-43,서울특별시 관악구 신림로11길 18,126.938725918341,37.4697479563014
세상과연애하기,,카페,기타 비알코올 음료점업,낙성대동,봉천동,서울특별시 관악구 봉천동 855-1,서울특별시 관악구 관악로14길 14,126.953281052358,37.4790685328944
딩동,,카페,커피 전문점,남영동,동자동,서울특별시 용산구 동자동 43-227,서울특별시 용산구 한강대로 405,126.969506078632,37.5547189980799
모리앤올리,,카페,커피 전문점,대조동,대조동,서울특별시 은평구 대조동 48-38,서울특별시 은평구 서오릉로10길 3,126.919206915825,37.6105298780731
매머드익스프레스충정로점,,카페,커피 전문점,충현동,충정로3가,서울특별시 서대문구 충정로3가 112,서울특별시 서대문구 경기대로 26-22,126.962677644361,37.5615251389367
청파맨션,,카페,커피 전문점,청파동,청파동2가,서울특별시 용산구 청파동2가 41-18,서울특별시 용산구 청파로47나길 20,126.967129857426,37.5456607725878
디저트삼십구,,카페,기타 비알코올 음료점업,북아현동,북아현동,서울특별시 서대문구 북아현동 154-5,서울특별시 서대문구 신촌로 261-1,126.955104186999,37.5575568461896
엠에프피,,카페,커피 전문점,사당1동,사당동,서울특별시 동작구 사당동 1017-5,서울특별시 동작구 동작대로11길 60,126.978191574653,37.4813680301427
도화당,,카페,커피 전문점,석촌동,석촌동,서울특별시 송파구 석촌동 275-4,서울특별시 송파구 송파대로37길 38,127.107957205986,37.5005754323458
커피에반하다강변역점,,카페,커피 전문점,구의3동,구의동,서울특별시 광진구 구의동 631-1,서울특별시 광진구 광나루로56길 29,127.096514325742,37.5369542342159
씬,,카페,커피 전문점,오류1동,오류동,서울특별시 구로구 오류동 24-17,서울특별시 구로구 경인로19길 36-20,126.842878282487,37.4971860138926
랭스영카페앤펍,,카페,커피 전문점,역삼1동,역삼동,서울특별시 강남구 역삼동 637-2,서울특별시 강남구 테헤란로13길 24,127.032060448153,37.5012484124013
포포아카이브,,카페,커피 전문점,서림동,신림동,서울특별시 관악구 신림동 94-122,서울특별시 관악구 신림로36길 10,126.937960004424,37.4759403149461
니드,,카페,커피 전문점,역삼1동,역삼동,서울특별시 강남구 역삼동 751-16,서울특별시 강남구 역삼로 139,127.034679397325,37.4946020309876
아짐커피로스터스,,카페,커피 전문점,삼청동,팔판동,서울특별시 종로구 팔판동 71,서울특별시 종로구 삼청로 65-2,126.980955977752,37.5815793066998
카페드리옹케이크부띠끄,,카페,커피 전문점,반포4동,반포동,서울특별시 서초구 반포동 106-9,서울특별시 서초구 서래로7길 18,126.997326823036,37.4988141919679
이안커피,,카페,커피 전문점,문정2동,문정동,서울특별시 송파구 문정동 639-5,서울특별시 송파구 정의로7길 13,127.115104425717,37.4852841052855
씬,,카페,커피 전문점,논현2동,논현동,서울특별시 강남구 논현동 60-8,서울특별시 강남구 도산대로 216,127.030461049756,37.5199772089217
매드커피,,카페,커피 전문점,명일2동,명일동,서울특별시 강동구 명일동 48-4,서울특별시 강동구 동남로73길 13,127.155447108024,37.5527354023485
플립커피로스터스,,카페,커피 전문점,가양1동,마곡동,서울특별시 강서구 마곡동 772-5,서울특별시 강서구 마곡중앙6로 45,126.832707276538,37.5606179703113
염소의커피집,,카페,커피 전문점,문정2동,문정동,서울특별시 송파구 문정동 150-20,서울특별시 송파구 중대로 24,127.111045390345,37.4881190128589
센서리티,,카페,커피 전문점,성내1동,성내동,서울특별시 강동구 성내동 564-8,서울특별시 강동구 성안로3길 68-9,127.126373158452,37.5274294709896
매머드익스프레스당산,,카페,커피 전문점,당산2동,당산동4가,서울특별시 영등포구 당산동4가 97,서울특별시 영등포구 당산로 175,126.898236662555,37.5302159342786
식껍도봉점,,카페,커피 전문점,도봉1동,도봉동,서울특별시 도봉구 도봉동 611-19,서울특별시 도봉구 도당로29길 65,127.042101173201,37.6701947411334
불광동커피공방,,카페,커피 전문점,응암3동,응암동,서울특별시 은평구 응암동 590-23,서울특별시 은평구 응암로13길 14,126.915628179832,37.5894399339255
제이브로빈스,,카페,커피 전문점,동선동,동선동2가,서울특별시 성북구 동선동2가 120,서울특별시 성북구 보문로30길 71,127.0195469316,37.5906192277289
로이83,,카페,커피 전문점,홍제1동,홍제동,서울특별시 서대문구 홍제동 158-49,서울특별시 서대문구 통일로 419-1,126.946011514545,37.5867687770671
한우리보호작업장카페늘봄1,,카페,커피 전문점,내곡동,염곡동,서울특별시 서초구 염곡동 300-11,서울특별시 서초구 양재대로 242,127.04441103673,37.4657121034755
청향엔에프,,카페,기타 비알코올 음료점업,이화동,연건동,서울특별시 종로구 연건동 193-4,서울특별시 종로구 대학로 44-5,127.002540068159,37.5752941932913
오버필커피,,카페,커피 전문점,연남동,연남동,서울특별시 마포구 연남동 387-11,서울특별시 마포구 동교로 262-5,126.925554944855,37.5628960902507
별빛카페달빛차,,카페,커피 전문점,연남동,연남동,서울특별시 마포구 연남동 509-13,서울특별시 마포구 성미산로 128,126.92097058013,37.5629083412263
놀숲,,카페,커피 전문점,신사동,신사동,서울특별시 강남구 신사동 577-8,서울특별시 강남구 압구정로28길 22-6,127.02700979914,37.5252740414438
커피에반하다,,카페,커피 전문점,장안1동,장안동,서울특별시 동대문구 장안동 580,서울특별시 동대문구 한천로 42,127.061707550264,37.565939882897
"이젠,봄",,카페,커피 전문점,종암동,종암동,서울특별시 성북구 종암동 40-4,서울특별시 성북구 종암로9길 30,127.033870426847,37.595909318191
로우키,,카페,커피 전문점,성수1가1동,성수동1가,서울특별시 성동구 성수동1가 22-8,서울특별시 성동구 뚝섬로1나길 5,127.047763487591,37.5444643868975
컴포즈커피용문,,카페,커피 전문점,용문동,용문동,서울특별시 용산구 용문동 28-41,서울특별시 용산구 새창로 110-2,126.960044753059,37.5375883043531
카페알코브,,카페,기타 비알코올 음료점업,대방동,대방동,서울특별시 동작구 대방동 391-357,서울특별시 동작구 대방동1길 12,126.926530817111,37.500363588801
니토로스터스,,카페,커피 전문점,신대방2동,신대방동,서울특별시 동작구 신대방동 362-41,서울특별시 동작구 여의대방로24길 72,126.924207306885,37.4983511363487
릴리펏수서점,,카페,커피 전문점,세곡동,율현동,서울특별시 강남구 율현동 532,서울특별시 강남구 밤고개로21길 73,127.11436452718,37.4742044882652
까페봄,,카페,커피 전문점,응암2동,응암동,서울특별시 은평구 응암동 576-11,서울특별시 은평구 응암로 238,126.918078322039,37.5930485311908
오커피랩,,카페,커피 전문점,수유2동,수유동,서울특별시 강북구 수유동 605-292,서울특별시 강북구 삼각산로 117,127.017231288675,37.6409679307755
별콩다방,,카페,커피 전문점,마천2동,마천동,서울특별시 송파구 마천동 126-5,서울특별시 송파구 마천로41길 9,127.148755638634,37.4972181544518
커피에반하다중계은행,,카페,자동 판매기 운영업,중계1동,중계동,서울특별시 노원구 중계동 359-10,서울특별시 노원구 한글비석로 265,127.076543725287,37.6514395972908
카페라움,,카페,커피 전문점,미성동,신림동,서울특별시 관악구 신림동 587-29,서울특별시 관악구 난곡로42길 3,126.916833301276,37.4756674301112
커피베이,,카페,커피 전문점,구로3동,구로동,서울특별시 구로구 구로동 197-28,서울특별시 구로구 디지털로31길 41,126.89273629885,37.4851573575664
하루,,카페,커피 전문점,구로2동,구로동,서울특별시 구로구 구로동 730-97,서울특별시 구로구 구로동로28길 20-2,126.885203018348,37.4906639877632
타셋커피로스터스,,카페,커피 전문점,상암동,상암동,서울특별시 마포구 상암동 1605,서울특별시 마포구 월드컵북로 396,126.889812409598,37.5794868062638
과일에반하다프루타,,카페,기타 비알코올 음료점업,행운동,봉천동,서울특별시 관악구 봉천동 1680-29,서울특별시 관악구 남부순환로 1901,126.960785856109,37.4784409703838
카페순이,,카페,커피 전문점,송정동,송정동,서울특별시 성동구 송정동 71-12,서울특별시 성동구 광나루로11길 51,127.068354479661,37.5521163717005
카페제이,,카페,커피 전문점,고덕2동,고덕동,서울특별시 강동구 고덕동 294-1,서울특별시 강동구 동남로82길 19,127.157983583904,37.5606647793614
빽다방창동역,,카페,커피 전문점,창5동,창동,서울특별시 도봉구 창동 135-13,서울특별시 도봉구 노해로63다길 10,127.046533467129,37.6533453151975
감꽃당,,카페,커피 전문점,종로1.2.3.4가동,익선동,서울특별시 종로구 익선동 166-17,서울특별시 종로구 돈화문로11다길 38,126.990062058823,37.5737914843372
오크라,,카페,커피 전문점,회기동,회기동,서울특별시 동대문구 회기동 20-2,서울특별시 동대문구 회기로21길 26,127.053389578178,37.5926164908511
라온,,카페,커피 전문점,종로1.2.3.4가동,경운동,서울특별시 종로구 경운동 89-4,서울특별시 종로구 삼일대로 461,126.985848842339,37.5756024973128
빈스코코클래스,,카페,기타 비알코올 음료점업,가양1동,마곡동,서울특별시 강서구 마곡동 794,서울특별시 강서구 강서로 391,126.838413190296,37.560530084324
이디야망리단길점,,카페,커피 전문점,망원1동,망원동,서울특별시 마포구 망원동 399-5,서울특별시 마포구 포은로 81-1,126.905249931854,37.554302871557
놀숲마곡,,카페,기타 비알코올 음료점업,가양1동,마곡동,서울특별시 강서구 마곡동 795-7,서울특별시 강서구 마곡중앙6로 93,126.837683755903,37.5601264512569
커피프레지던트,,카페,커피 전문점,방배본동,방배동,서울특별시 서초구 방배동 753-7,서울특별시 서초구 동광로1길 107,126.983636897542,37.4967238955853
투썸플레이스구로항동점,,카페,커피 전문점,항동,항동,서울특별시 구로구 항동 121-1,서울특별시 구로구 서해안로 2096,126.822874938197,37.4797514654673
온다,,카페,커피 전문점,신대방1동,신대방동,서울특별시 동작구 신대방동 713,서울특별시 동작구 여의대방로10길 38,126.912545098265,37.495397044836
빽다방망우역,,카페,커피 전문점,망우본동,망우동,서울특별시 중랑구 망우동 479,서울특별시 중랑구 용마산로115길 127,127.093653525135,37.5975188645086
오버트합정,,카페,커피 전문점,서교동,서교동,서울특별시 마포구 서교동 373-5,서울특별시 마포구 잔다리로 43,126.918705268645,37.5520481237092
댓커피,,카페,커피 전문점,역삼2동,역삼동,서울특별시 강남구 역삼동 707-34,서울특별시 강남구 테헤란로 322,127.04656828855,37.5032315844681
메가엠지씨커피강서,,카페,커피 전문점,염창동,염창동,서울특별시 강서구 염창동 273-8,서울특별시 강서구 공항대로61길 22,126.865877700282,37.5519399477817
유목,,카페,커피 전문점,동선동,동선동1가,서울특별시 성북구 동선동1가 85-151,서울특별시 성북구 동소문로24길 47,127.018741259068,37.59161268757
바게트의정석,,카페,커피 전문점,수서동,수서동,서울특별시 강남구 수서동 708,서울특별시 강남구 광평로51길 27,127.10097386445,37.4896917443946
은이네커피,,카페,커피 전문점,천호1동,천호동,서울특별시 강동구 천호동 237-19,서울특별시 강동구 구천면로40길 9,127.134117857885,37.545498624762
청자다방,,카페,커피 전문점,공릉2동,공릉동,서울특별시 노원구 공릉동 441-91,서울특별시 노원구 공릉로 191-4,127.078659102746,37.6269749489529
카페333,,카페,커피 전문점,서교동,서교동,서울특별시 마포구 서교동 333-10,서울특별시 마포구 와우산로29라길 12,126.92701116459,37.5552775362308
언니가숨겨놓은과자상자,,카페,기타 비알코올 음료점업,방배2동,방배동,서울특별시 서초구 방배동 464-12,서울특별시 서초구 방배천로8길 36,126.984638248216,37.4803964062343
웰하우스,,카페,커피 전문점,송파1동,송파동,서울특별시 송파구 송파동 57-11,서울특별시 송파구 오금로16길 10,127.108717826683,37.5107991878822
이두블루커피컴퍼니,,카페,커피 전문점,역삼2동,역삼동,서울특별시 강남구 역삼동 775-1,서울특별시 강남구 논현로72길 14,127.040637819223,37.4955876677583
브브스VVS,,카페,커피 전문점,신사동,신사동,서울특별시 강남구 신사동 520-12,서울특별시 강남구 강남대로160길 37,127.021587288246,37.5203365357408
이디야커피고덕그라시움,,카페,커피 전문점,고덕2동,고덕동,서울특별시 강동구 고덕동 225,서울특별시 강동구 동남로82길 121,127.163680037299,37.5603898985234
이디야커피건대스타시티,,카페,커피 전문점,자양3동,자양동,서울특별시 광진구 자양동 227-342,서울특별시 광진구 능동로 92,127.07119956705,37.538992451652
쥬씨중계,,카페,기타 비알코올 음료점업,중계2.3동,중계동,서울특별시 노원구 중계동 506,서울특별시 노원구 동일로203가길 29,127.064268489462,37.6398636729934
우지커피동원,,카페,커피 전문점,망우3동,망우동,서울특별시 중랑구 망우동 525-5,서울특별시 중랑구 겸재로 237,127.093925370547,37.5900422758119
라이트앤솔트,,카페,커피 전문점,창5동,창동,서울특별시 도봉구 창동 252,서울특별시 도봉구 노해로63다길 41,127.045632764058,37.6546535399714
가배봄날,,카페,커피 전문점,내곡동,염곡동,서울특별시 서초구 염곡동 219-15,서울특별시 서초구 탑성말길 18-5,127.057146549778,37.4570740983496
트립커피남북통합문화,,카페,커피 전문점,공항동,마곡동,서울특별시 강서구 마곡동 745,서울특별시 강서구 마곡서1로 48,126.821312954848,37.5611174599324
카페보리,,카페,커피 전문점,장지동,장지동,서울특별시 송파구 장지동 850-2,서울특별시 송파구 충민로 184,127.134321889482,37.4857328387119
빛톤,,카페,커피 전문점,영등포본동,신길동,서울특별시 영등포구 신길동 188-304,서울특별시 영등포구 신길로60길 7,126.912299132494,37.5139112689054
박스프레소BACSPRESSOMAGOK,,카페,커피 전문점,가양1동,마곡동,서울특별시 강서구 마곡동 772-5,서울특별시 강서구 마곡중앙6로 45,126.832707276538,37.5606179703113
탐앤탐스역삼GS,,카페,커피 전문점,역삼1동,역삼동,서울특별시 강남구 역삼동 679-1,서울특별시 강남구 논현로 508,127.037277378321,37.5018857412981
대수롭다,,카페,커피 전문점,잠원동,잠원동,서울특별시 서초구 잠원동 35-29,서울특별시 서초구 신반포로47길 33-2,127.018888812618,37.5121596310658
커피인류,,카페,커피 전문점,가락1동,가락동,서울특별시 송파구 가락동 913,서울특별시 송파구 송파대로 345,127.102518841,37.4976057949232
하이퍼커피,,카페,커피 전문점,구로2동,구로동,서울특별시 구로구 구로동 417-1,서울특별시 구로구 구로동로 180,126.883018909954,37.4945719138274
쥬시,,카페,커피 전문점,석관동,석관동,서울특별시 성북구 석관동 252-7,서울특별시 성북구 돌곶이로 63,127.058308702367,37.6093161048867
안밀,,카페,커피 전문점,행운동,봉천동,서울특별시 관악구 봉천동 1688-126,서울특별시 관악구 남부순환로 1945,126.965264209968,37.4767232207845
카페마레,,카페,기타 비알코올 음료점업,종로5.6가동,연지동,서울특별시 종로구 연지동 136-53,서울특별시 종로구 김상옥로 30,127.000615601446,37.5727459885461
셀라,,카페,커피 전문점,창5동,창동,서울특별시 도봉구 창동 333-2,서울특별시 도봉구 노해로65길 11,127.046179228848,37.6518016844306
커피에반하다,,카페,커피 전문점,용신동,용두동,서울특별시 동대문구 용두동 233-23,서울특별시 동대문구 왕산로 45,127.028324322797,37.5774104484699
해성커피,,카페,커피 전문점,송천동,미아동,서울특별시 강북구 미아동 864-7,서울특별시 강북구 도봉로 41-1,127.029745466613,37.6127068970516
빨간벽돌,,카페,커피 전문점,신대방2동,신대방동,서울특별시 동작구 신대방동 498-39,서울특별시 동작구 여의대방로16길 14,126.916580347259,37.4963171487277
투썸플레이스문정KD70점,,카페,커피 전문점,문정2동,문정동,서울특별시 송파구 문정동 640-8,서울특별시 송파구 정의로8길 4,127.115687581184,37.4856939498767
굿뉴스웍스,,카페,커피 전문점,원효로1동,원효로1가,서울특별시 용산구 원효로1가 37-5,서울특별시 용산구 원효로93길 18-6,126.96880075489,37.5410169781652
Sit,,카페,커피 전문점,옥수동,옥수동,서울특별시 성동구 옥수동 322-3,서울특별시 성동구 독서당로 230,127.016091646108,37.5442768124759
안녕가비,,카페,커피 전문점,중곡3동,중곡동,서울특별시 광진구 중곡동 172-74,서울특별시 광진구 능동로53길 41,127.082194604106,37.5669749476765
나우커피점,,카페,커피 전문점,가양1동,마곡동,서울특별시 강서구 마곡동 759,서울특별시 강서구 마곡서로 158,126.825402867891,37.5680781317079
커피브레이크,,카페,커피 전문점,가산동,가산동,서울특별시 금천구 가산동 233-5,서울특별시 금천구 디지털로10길 69,126.890835546315,37.4752910775564
메가엠지씨커피경복궁역점,,카페,커피 전문점,사직동,체부동,서울특별시 종로구 체부동 46,서울특별시 종로구 자하문로 11-1,126.972004929599,37.577131652428
카페뉴욕,,카페,커피 전문점,서림동,신림동,서울특별시 관악구 신림동 122-33,서울특별시 관악구 신림로14길 26,126.938300094994,37.4718796258221
도로시,,카페,커피 전문점,창3동,창동,서울특별시 도봉구 창동 557-5,서울특별시 도봉구 덕릉로 222,127.03761123862,37.637793100856
카페Bien,,카페,커피 전문점,노량진1동,노량진동,서울특별시 동작구 노량진동 211-35,서울특별시 동작구 만양로14다길 17,126.945550955788,37.5109960706669
카페엘림,,카페,커피 전문점,암사1동,암사동,서울특별시 강동구 암사동 496-32,서울특별시 강동구 상암로 53-10,127.129496497878,37.5497536656349
설탕한스푼설렘두스푼,,카페,커피 전문점,하계1동,하계동,서울특별시 노원구 하계동 166-6,서울특별시 노원구 공릉로58나길 20-5,127.073917207223,37.6366239885371
와플대학외대캠퍼스,,빵/도넛,커피 전문점,이문1동,이문동,서울특별시 동대문구 이문동 304-25,서울특별시 동대문구 휘경로 23,127.062592889752,37.5955462508485
카페미뇽,,카페,기타 비알코올 음료점업,화양동,화양동,서울특별시 광진구 화양동 9-90,서울특별시 광진구 아차산로29길 12,127.068419680583,37.5414214146299
카페빈,,카페,커피 전문점,서교동,서교동,서울특별시 마포구 서교동 409-9,서울특별시 마포구 와우산로15길 24,126.921820557581,37.549481618813
포트캔커피,,카페,커피 전문점,신정4동,신정동,서울특별시 양천구 신정동 945-3,서울특별시 양천구 오목로 138,126.852688087447,37.5242047740356
옥인23,,카페,커피 전문점,청운효자동,옥인동,서울특별시 종로구 옥인동 93,서울특별시 종로구 필운대로 57,126.968349288609,37.5811544351715
아날록북컵,,카페,커피 전문점,항동,항동,서울특별시 구로구 항동 100-5,서울특별시 구로구 연동로 233,126.820685750914,37.4816398420984
팔로미노,,카페,커피 전문점,잠원동,잠원동,서울특별시 서초구 잠원동 15-4,서울특별시 서초구 나루터로 69,127.017360285016,37.5157241014411
커피힙,,카페,커피 전문점,사직동,당주동,서울특별시 종로구 당주동 100,서울특별시 종로구 세종대로23길 54,126.9732783098,37.5717905578649
리프노즈드아쉬지,,카페,커피 전문점,공릉1동,공릉동,서울특별시 노원구 공릉동 577-17,서울특별시 노원구 동일로178길 11-13,127.074860105261,37.621800288086
수화커피숍,,카페,커피 전문점,성내2동,성내동,서울특별시 강동구 성내동 407-4,서울특별시 강동구 천호대로170길 75,127.13205468723,37.5321388389928
꽃다방,,카페,기타 비알코올 음료점업,자양4동,자양동,서울특별시 광진구 자양동 547-64,서울특별시 광진구 뚝섬로31길 43,127.068196563607,37.5375271106595
투썸플레이스수락산역점,,카페,커피 전문점,상계1동,상계동,서울특별시 노원구 상계동 1132-63,서울특별시 노원구 동일로243길 13,127.054366420714,37.6782047649157
카페,,카페,커피 전문점,가양1동,마곡동,서울특별시 강서구 마곡동 760-2,서울특별시 강서구 마곡중앙로 161-1,126.827432586305,37.5678550320444
워터스트리트,,카페,커피 전문점,혜화동,명륜1가,서울특별시 종로구 명륜1가 33-69,서울특별시 종로구 혜화로 33,126.999385517175,37.5885308148565
삼두커피,,카페,커피 전문점,문정2동,문정동,서울특별시 송파구 문정동 644-2,서울특별시 송파구 법원로11길 7,127.119389989001,37.4852800829819
더카페용문,,카페,커피 전문점,용문동,용문동,서울특별시 용산구 용문동 28-62,서울특별시 용산구 새창로 116,126.960379232677,37.53713171687
피보나치,,카페,커피 전문점,대조동,대조동,서울특별시 은평구 대조동 205-18,서울특별시 은평구 통일로73길 26,126.921727419472,37.6148148095174
진심커피,,카페,커피 전문점,개봉1동,개봉동,서울특별시 구로구 개봉동 62-6,서울특별시 구로구 고척로21가길 11,126.845414660041,37.5021215054914
엘리스빈커피,,카페,커피 전문점,상도3동,상도동,서울특별시 동작구 상도동 308-12,서울특별시 동작구 국사봉1길 82,126.931499011497,37.4977505411831
구구커피,,카페,커피 전문점,공릉2동,공릉동,서울특별시 노원구 공릉동 270-65,서울특별시 노원구 노원로1길 109,127.081209172916,37.6204442728024
비전스트롤,,카페,커피 전문점,망원2동,망원동,서울특별시 마포구 망원동 422-32,서울특별시 마포구 망원로 61,126.903555140433,37.5571974956487
셀렉토커피,,카페,커피 전문점,양평1동,양평동2가,서울특별시 영등포구 양평동2가 29-23,서울특별시 영등포구 영등포로 33,126.885193253742,37.5232636382011
카시코이,,카페,기타 비알코올 음료점업,연희동,연희동,서울특별시 서대문구 연희동 446-285,서울특별시 서대문구 성산로 253-4,126.918556358597,37.5678329449436
달빛흘러간자리,,카페,커피 전문점,용산2가동,용산동2가,서울특별시 용산구 용산동2가 1-497,서울특별시 용산구 신흥로 95-5,126.985069168563,37.5454559134964
포에잇커피,,카페,커피 전문점,여의동,여의도동,서울특별시 영등포구 여의도동 44-27,서울특별시 영등포구 의사당대로1길 25,126.929823529688,37.520054293526
텐퍼센트커피마곡리더,,카페,커피 전문점,가양1동,마곡동,서울특별시 강서구 마곡동 772-5,서울특별시 강서구 마곡중앙6로 45,126.832707276538,37.5606179703113
이디야위례포레샤인점,,카페,커피 전문점,위례동,장지동,서울특별시 송파구 장지동 905,서울특별시 송파구 위례순환로 477,127.136536572013,37.4750624142372
커피베이송파여성문화회관점,,카페,커피 전문점,송파1동,송파동,서울특별시 송파구 송파동 85-11,서울특별시 송파구 백제고분로42길 6,127.109422562536,37.505749561817
레미제라블,,카페,기타 비알코올 음료점업,상도2동,상도동,서울특별시 동작구 상도동 368-11,서울특별시 동작구 상도로 180,126.938845898179,37.5044304608799
벌툰,,카페,기타 비알코올 음료점업,신촌동,창천동,서울특별시 서대문구 창천동 57-3,서울특별시 서대문구 연세로5가길 8-3,126.936125981917,37.5573873596008
방배노인종합복지관늘봄카페,,카페,커피 전문점,반포1동,반포동,서울특별시 서초구 반포동 20-48,서울특별시 서초구 사평대로 273,127.013360164549,37.5050853683316
피치,,카페,커피 전문점,목1동,목동,서울특별시 양천구 목동 408-40,서울특별시 양천구 목동서로 250,126.869329529381,37.5249599574093
쥬청과강남세곡점,,카페,기타 비알코올 음료점업,세곡동,자곡동,서울특별시 강남구 자곡동 670,서울특별시 강남구 밤고개로 223,127.107092254552,37.4744290865858
꽃잎,,카페,커피 전문점,서초3동,방배동,서울특별시 서초구 방배동 1001-1,서울특별시 서초구 효령로 174,127.003103396831,37.481986329463
카페미뇽오목교역점,,카페,커피 전문점,목1동,목동,서울특별시 양천구 목동 406-30,서울특별시 양천구 오목로 342,126.875333320035,37.5244406197819
오앤씨커피,,카페,커피 전문점,논현2동,논현동,서울특별시 강남구 논현동 108,서울특별시 강남구 학동로43길 38,127.038003494045,37.5184530309849
올디너리모먼트,,카페,커피 전문점,도곡2동,도곡동,서울특별시 강남구 도곡동 517-8,서울특별시 강남구 논현로30길 26,127.044155756444,37.4839835313592
언니커피,,카페,커피 전문점,암사1동,암사동,서울특별시 강동구 암사동 488-20,서울특별시 강동구 구천면로 315,127.134906133117,37.5477930820628
빽다방강동,,카페,커피 전문점,성내1동,성내동,서울특별시 강동구 성내동 319-27,서울특별시 강동구 성내로3길 1,127.121889517671,37.530612991917
셀렉토커피,,카페,"피자, 햄버거, 샌드위치 및 유사 음식점업",남가좌2동,남가좌동,서울특별시 서대문구 남가좌동 344-26,서울특별시 서대문구 증가로 132,126.922966560168,37.5775774251412
토프레소공덕르네상스점,,카페,커피 전문점,공덕동,공덕동,서울특별시 마포구 공덕동 456,서울특별시 마포구 만리재로 14,126.952815408957,37.54398489734
비엔나커피하우스,,카페,커피 전문점,신림동,신림동,서울특별시 관악구 신림동 1431-12,서울특별시 관악구 신림로 363,126.928933533052,37.4865452922238
이오커피로스터스,,카페,커피 전문점,성수1가1동,성수동1가,서울특별시 성동구 성수동1가 656-570,서울특별시 성동구 뚝섬로1가길 27,127.047784029392,37.5419596340498
동봉커피,,카페,커피 전문점,방이2동,방이동,서울특별시 송파구 방이동 40-3,서울특별시 송파구 올림픽로 374,127.111790436141,37.5168684347723
쥬쥬바,,카페,기타 비알코올 음료점업,구로1동,구로동,서울특별시 구로구 구로동 685-448,서울특별시 구로구 구일로4길 30,126.876432547981,37.4918693928575
도넛홀릭,,카페,커피 전문점,대흥동,대흥동,서울특별시 마포구 대흥동 262-1,서울특별시 마포구 백범로 102,126.942435685844,37.5473884311467
동네카페,,카페,커피 전문점,상일2동,상일동,서울특별시 강동구 상일동 485,서울특별시 강동구 상일로12길 54,127.174244726246,37.5548777154533
힛더커피,,카페,커피 전문점,가산동,가산동,서울특별시 금천구 가산동 60-19,서울특별시 금천구 벚꽃로 278,126.884622894656,37.479485536818
올레무스,,카페,커피 전문점,연희동,연희동,서울특별시 서대문구 연희동 220-40,서울특별시 서대문구 연희로5길 58,126.926028406159,37.5653962732769
커피베이,,카페,커피 전문점,구로3동,구로동,서울특별시 구로구 구로동 1124-95,서울특별시 구로구 디지털로32나길 17-22,126.89992398262,37.4846388232934
커피리브,,카페,커피 전문점,갈현1동,갈현동,서울특별시 은평구 갈현동 429-34,서울특별시 은평구 통일로83길 24,126.91722260981,37.6208374866991
디스타갤러리,,카페,커피 전문점,신사동,신사동,서울특별시 강남구 신사동 517-6,서울특별시 강남구 압구정로2길 49,127.021179110086,37.5186752188187
"카페리,차지",,카페,커피 전문점,도봉2동,도봉동,서울특별시 도봉구 도봉동 636-6,서울특별시 도봉구 마들로 672-24,127.04679503007,37.6701156349785
구구족,,족발/보쌈,커피 전문점,당산2동,당산동4가,서울특별시 영등포구 당산동4가 74-3,서울특별시 영등포구 당산로 167,126.898145585629,37.5294852414559
아마스빈버블티,,카페,커피 전문점,대학동,신림동,서울특별시 관악구 신림동 1532-20,서울특별시 관악구 호암로22길 21,126.933943092847,37.4690110911829
공차,,카페,기타 비알코올 음료점업,길음2동,하월곡동,서울특별시 성북구 하월곡동 230,서울특별시 성북구 종암로 167,127.030977487378,37.6050491796559
우드포토,,카페,커피 전문점,인수동,수유동,서울특별시 강북구 수유동 445-60,서울특별시 강북구 인수봉로56길 30-6,127.014452288371,37.6360431272628
카페바이트미,,카페,기타 비알코올 음료점업,월곡2동,상월곡동,서울특별시 성북구 상월곡동 50-8,서울특별시 성북구 장월로1길 31,127.046153063721,37.6068667662756
그라인드미커피로스터스,,카페,커피 전문점,양평1동,양평동1가,서울특별시 영등포구 양평동1가 219-6,서울특별시 영등포구 영등포로11길 22-1,126.888340652931,37.524626846759
카페작은자리,,카페,커피 전문점,은천동,봉천동,서울특별시 관악구 봉천동 924-24,서울특별시 관악구 봉천로33길 6,126.943779294731,37.4833991251559
블루도트,,카페,커피 전문점,종로1.2.3.4가동,종로3가,서울특별시 종로구 종로3가 18,서울특별시 종로구 종로 125,126.991530580506,37.5706684142602
콩다방,,카페,커피 전문점,한강로동,한강로2가,서울특별시 용산구 한강로2가 314-1,서울특별시 용산구 한강대로 109,126.968149269322,37.5299915026739
펠리스,,카페,커피 전문점,상일1동,상일동,서울특별시 강동구 상일동 300-5,서울특별시 강동구 천호대로219나길 46,127.172262139453,37.5478896560149
에디션덴마크쇼룸,,카페,커피 전문점,청운효자동,통인동,서울특별시 종로구 통인동 74,서울특별시 종로구 자하문로9길 24,126.969775243768,37.5795540298402
곤트란쉐리에,,카페,커피 전문점,도화동,도화동,서울특별시 마포구 도화동 4-112,서울특별시 마포구 새창로 30,126.953097341497,37.5416266643325
일리카페IBM점,,카페,커피 전문점,여의동,여의도동,서울특별시 영등포구 여의도동 23,서울특별시 영등포구 국제금융로 10,126.924863083917,37.5251722235016
카페아무,,카페,커피 전문점,양평1동,양평동1가,서울특별시 영등포구 양평동1가 212-4,서울특별시 영등포구 선유서로24길 25-1,126.88853767768,37.5235474520778
블랭크,,카페,커피 전문점,잠실본동,잠실동,서울특별시 송파구 잠실동 251-11,서울특별시 송파구 삼전로9길 5-21,127.088254334767,37.5053357747217
감성커피장안동,,카페,커피 전문점,장안2동,장안동,서울특별시 동대문구 장안동 307-3,서울특별시 동대문구 장한로 139,127.071412678846,37.5728916098509
카페아에,,카페,커피 전문점,상계6.7동,상계동,서울특별시 노원구 상계동 726-1,서울특별시 노원구 동일로218길 17,127.061758253118,37.6538638451031
디저트보안관,,카페,커피 전문점,전농1동,전농동,서울특별시 동대문구 전농동 129-40,서울특별시 동대문구 서울시립대로 126,127.052206405189,37.5814430659186
뉴욕쟁이디저트화랑대점,,카페,한식 일반 음식점업,묵1동,묵동,서울특별시 중랑구 묵동 2,서울특별시 중랑구 신내로25가길 2,127.084177726428,37.619467194513
인터렉트,,카페,커피 전문점,논현1동,논현동,서울특별시 강남구 논현동 183-3,서울특별시 강남구 강남대로118길 16,127.024878584656,37.506478533475
개판카페,,카페,커피 전문점,청룡동,봉천동,서울특별시 관악구 봉천동 1701,서울특별시 관악구 관악로 133,126.952044716544,37.4769220785842
카페공감,,카페,커피 전문점,삼전동,삼전동,서울특별시 송파구 삼전동 14-6,서울특별시 송파구 삼전로10길 11,127.090749007904,37.5057424586312
그레이스케일,,카페,커피 전문점,역삼1동,역삼동,서울특별시 강남구 역삼동 618-8,서울특별시 강남구 강남대로102길 38,127.028234848549,37.5032173446431
컴포즈커피,,카페,커피 전문점,홍은1동,홍은동,서울특별시 서대문구 홍은동 9-318,서울특별시 서대문구 홍은중앙로 107,126.948541264246,37.6001086407606
이디야커피,,카페,커피 전문점,왕십리2동,하왕십리동,서울특별시 성동구 하왕십리동 946-5,서울특별시 성동구 무학봉15길 27,127.030154998167,37.563702595198
로칼커피청담점,,카페,커피 전문점,청담동,청담동,서울특별시 강남구 청담동 40-23,서울특별시 강남구 선릉로132길 5,127.041548161639,37.5181484594076
멜트커피,,카페,커피 전문점,잠실본동,잠실동,서울특별시 송파구 잠실동 195,서울특별시 송파구 백제고분로7길 6,127.079428405087,37.5102501684426
더초이,,카페,커피 전문점,방배4동,방배동,서울특별시 서초구 방배동 862-13,서울특별시 서초구 도구로 120,126.986131382958,37.4870409886699
히읗히읗,,카페,커피 전문점,군자동,군자동,서울특별시 광진구 군자동 361-31,서울특별시 광진구 군자로10길 14-15,127.071581208844,37.5483663867991
커피앤샵,,카페,커피 전문점,당산1동,당산동2가,서울특별시 영등포구 당산동2가 2,서울특별시 영등포구 당산로 67,126.895172235352,37.5208975693821
리키커피숍,,카페,커피 전문점,공항동,공항동,서울특별시 강서구 공항동 41-78,서울특별시 강서구 공항대로8길 41,126.812356441998,37.5591986083408
수정공원,,카페,커피 전문점,고척2동,고척동,서울특별시 구로구 고척동 171-80,서울특별시 구로구 중앙로 87-13,126.860072260646,37.505084127324
티앤제이카페,,카페,기타 비알코올 음료점업,종암동,종암동,서울특별시 성북구 종암동 81-49,서울특별시 성북구 종암로21길 89,127.031582360379,37.6020717033383
마루트레이딩,,카페,기타 비알코올 음료점업,양평2동,양평동5가,서울특별시 영등포구 양평동5가 90-2,서울특별시 영등포구 양평로24길 12,126.893384651741,37.5392890891334
해머스미스커피선릉,,카페,커피 전문점,삼성2동,삼성동,서울특별시 강남구 삼성동 144-21,서울특별시 강남구 테헤란로77길 6,127.054891584402,37.506893684665
프로토콜,,카페,커피 전문점,연희동,연희동,서울특별시 서대문구 연희동 137-1,서울특별시 서대문구 연희로 109,126.931359626542,37.5677873506698
이디야커피,,카페,커피 전문점,광희동,오장동,서울특별시 중구 오장동 69-29,서울특별시 중구 마른내로 109-1,127.000113122827,37.5646053179773
자연물들이기,,카페,기타 비알코올 음료점업,이화동,동숭동,서울특별시 종로구 동숭동 15,서울특별시 종로구 동숭4나길 8,127.004406643427,37.5830498965334
마포마을활력소성미산마을회관,,카페,커피 전문점,성산1동,성산동,서울특별시 마포구 성산동 250-23,서울특별시 마포구 성미산로3길 2,126.909691798274,37.5585968726479
더블딥커피,,카페,커피 전문점,방배1동,방배동,서울특별시 서초구 방배동 912-1,서울특별시 서초구 방배로11길 21,126.995377396723,37.4813982751186
유어즈에버,,카페,커피 전문점,종암동,종암동,서울특별시 성북구 종암동 45-183,서울특별시 성북구 종암로9길 52,127.032901451912,37.5964059652761
투썸플레이스신정뉴타운점,,카페,커피 전문점,신월6동,신월동,서울특별시 양천구 신월동 550-3,서울특별시 양천구 신월로 164,126.842006539601,37.5177482054582
휴앤안,,카페,커피 전문점,신길6동,신길동,서울특별시 영등포구 신길동 496,서울특별시 영등포구 여의대방로29길 10,126.918826654409,37.4997436874255
삼백커피오륜점,,카페,커피 전문점,여의동,여의도동,서울특별시 영등포구 여의도동 36-4,서울특별시 영등포구 국제금융로8길 34,126.927219152361,37.5202288956691
카페아트엔,,카페,기타 비알코올 음료점업,압구정동,신사동,서울특별시 강남구 신사동 620-6,서울특별시 강남구 압구정로36길 22-6,127.031159760793,37.5271823449405
푸르토아,,카페,커피 전문점,독산2동,독산동,서울특별시 금천구 독산동 378-54,서울특별시 금천구 독산로54길 41,126.906969089313,37.4644035631981
공차노량진학원가점,,카페,커피 전문점,노량진1동,노량진동,서울특별시 동작구 노량진동 95,서울특별시 동작구 노량진로16길 16,126.943466676535,37.5128155811208
토프레소,,카페,커피 전문점,대림3동,대림동,서울특별시 영등포구 대림동 608-1,서울특별시 영등포구 도신로 31,126.894813409666,37.5061080966751
공간빛,,카페,커피 전문점,인수동,수유동,서울특별시 강북구 수유동 408-36,서울특별시 강북구 삼양로93길 11-26,127.016295382481,37.6371848011001
커피가게동경,,카페,커피 전문점,망원1동,망원동,서울특별시 마포구 망원동 410-1,서울특별시 마포구 망원로6길 21,126.903539672537,37.5559358997852
보리커피맥주,,카페,기타 비알코올 음료점업,독산3동,독산동,서울특별시 금천구 독산동 962-48,서울특별시 금천구 독산로 349,126.903515239558,37.4779774185514
럼버잭,,카페,커피 전문점,부암동,부암동,서울특별시 종로구 부암동 278-7,서울특별시 종로구 창의문로 151,126.963550854234,37.5932583826589
한우리보호작업장행복한베이커리&카페,,카페,커피 전문점,서초2동,서초동,서울특별시 서초구 서초동 1376-3,서울특별시 서초구 남부순환로 2584,127.032684482382,37.4835567769023
컴포즈커피은평역말,,카페,커피 전문점,역촌동,역촌동,서울특별시 은평구 역촌동 62-3,서울특별시 은평구 역말로 40,126.914679396963,37.6056497908526
빌리엔젤마곡역점,,카페,커피 전문점,발산1동,마곡동,서울특별시 강서구 마곡동 799-5,서울특별시 강서구 마곡중앙로 56,126.827137102246,37.5585444553216
착한다방,,카페,커피 전문점,대조동,대조동,서울특별시 은평구 대조동 240,서울특별시 은평구 불광로 20,126.928924992752,37.6097264623916
인생카페,,카페,커피 전문점,구로3동,구로동,서울특별시 구로구 구로동 851,서울특별시 구로구 디지털로 242,126.892664191399,37.4808496754916
타이거커피,,카페,커피 전문점,가산동,가산동,서울특별시 금천구 가산동 371-41,서울특별시 금천구 가산디지털1로 171,126.880658049948,37.4807545579068
차스텔라,,카페,커피 전문점,대학동,신림동,서울특별시 관악구 신림동 1555-2,서울특별시 관악구 호암로22길 28,126.934274471938,37.4687617857065
시엠프레꼬모도밍고,,카페,커피 전문점,후암동,후암동,서울특별시 용산구 후암동 41-2,서울특별시 용산구 후암로34길 11,126.977769445855,37.5513037932537
쿠즈코커피,,카페,커피 전문점,신대방2동,신대방동,서울특별시 동작구 신대방동 343-7,서울특별시 동작구 보라매로 59,126.927042511816,37.4946375732274
카페리브93,,카페,커피 전문점,구의3동,구의동,서울특별시 광진구 구의동 217-1,서울특별시 광진구 구의강변로 93,127.0937302264,37.5388701661603
커피기업,,카페,커피 전문점,합정동,합정동,서울특별시 마포구 합정동 473,서울특별시 마포구 월드컵로3길 14,126.911635844887,37.5510010372887
칸데레커피,,카페,커피 전문점,화곡6동,화곡동,서울특별시 강서구 화곡동 1123-38,서울특별시 강서구 까치산로 154,126.85253857003,37.5509460705425
서울에서첫번째전통찻집,,카페,기타 비알코올 음료점업,종로1.2.3.4가동,종로1가,서울특별시 종로구 종로1가 24,서울특별시 종로구 종로 19,126.979902392746,37.5708388183663
네마,,카페,커피 전문점,삼청동,삼청동,서울특별시 종로구 삼청동 63-17,서울특별시 종로구 삼청로 86-4,126.98205634727,37.5830845265213
에브리데이,,카페,커피 전문점,다산동,신당동,서울특별시 중구 신당동 353-97,서울특별시 중구 동호로11길 53,127.008689175743,37.5529460378601
더마실카페,,카페,커피 전문점,중곡1동,중곡동,서울특별시 광진구 중곡동 241-17,서울특별시 광진구 긴고랑로 41,127.080896390237,37.5630002333348
버켄문화센터스페이스코르,,카페,커피 전문점,종로5.6가동,연지동,서울특별시 종로구 연지동 136-46,서울특별시 종로구 대학로 19,127.001598212721,37.5729164906656
함께그린cafe,,카페,커피 전문점,가산동,가산동,서울특별시 금천구 가산동 464-2,서울특별시 금천구 벚꽃로 309,126.882545204463,37.4815833642367
그레잇이삼칠,,카페,기타 비알코올 음료점업,논현1동,논현동,서울특별시 강남구 논현동 23-7,서울특별시 강남구 학동로7길 29,127.023007081873,37.5138246724032
사운드웨이브커피,,카페,커피 전문점,논현2동,논현동,서울특별시 강남구 논현동 67-25,서울특별시 강남구 논현로146길 13,127.030143281665,37.5183076533639
벤티프레소구로대륭7차점,,카페,커피 전문점,구로3동,구로동,서울특별시 구로구 구로동 170-10,서울특별시 구로구 디지털로33길 48,126.89449205644,37.487246208164
만델리나,,카페,커피 전문점,도림동,도림동,서울특별시 영등포구 도림동 267-3,서울특별시 영등포구 도영로 22,126.895877854286,37.5083256092203
키웨스트,,카페,커피 전문점,방학3동,방학동,서울특별시 도봉구 방학동 584,서울특별시 도봉구 방학로17길 85,127.021049413788,37.662579385456
풍경,,카페,커피 전문점,화곡1동,화곡동,서울특별시 강서구 화곡동 934-10,서울특별시 강서구 강서로5나길 131,126.840873426181,37.5281080285064
더스팟패뷸러스,,카페,커피 전문점,명동,명동2가,서울특별시 중구 명동2가 105,서울특별시 중구 남대문로 52-13,126.98231878777,37.5621375899889
서양콩차,,카페,커피 전문점,우장산동,내발산동,서울특별시 강서구 내발산동 657,서울특별시 강서구 강서로 348,126.838059510113,37.5570666421754
카페스토리,,카페,커피 전문점,대치2동,대치동,서울특별시 강남구 대치동 65,서울특별시 강남구 영동대로 220,127.070609369611,37.4999180671539
티라펠리체,,카페,커피 전문점,소공동,소공동,서울특별시 중구 소공동 1,서울특별시 중구 을지로 30,126.980984894727,37.5653337940277
이디야,,카페,커피 전문점,당산2동,당산동5가,서울특별시 영등포구 당산동5가 11-33,서울특별시 영등포구 당산로 222,126.902276759613,37.5332360031236
이디야오목교대학학원점,,카페,커피 전문점,목1동,목동,서울특별시 양천구 목동 406-35,서울특별시 양천구 오목로 319,126.873049951186,37.5250676013836
삼녀네커피,,카페,커피 전문점,월계2동,월계동,서울특별시 노원구 월계동 947,서울특별시 노원구 월계로45길 21,127.05126065585,37.6256135102305
가토프레소,,카페,커피 전문점,논현2동,논현동,서울특별시 강남구 논현동 117-1,서울특별시 강남구 학동로 323,127.038321865986,37.5165634123603
빽다방,,카페,커피 전문점,조원동,신림동,서울특별시 관악구 신림동 518-36,서울특별시 관악구 난곡로 363,126.91344555382,37.4863227686677
온도감,,카페,커피 전문점,방학1동,방학동,서울특별시 도봉구 방학동 695,서울특별시 도봉구 도당로 66-1,127.035176197724,37.6639932688753
샵천구백육십육,,카페,커피 전문점,양평1동,양평동1가,서울특별시 영등포구 양평동1가 204-10,서울특별시 영등포구 선유로23길 16-1,126.888385600582,37.523122531469
엔피에스카페테리아카페삼십육점오,,카페,커피 전문점,잠실6동,신천동,서울특별시 송파구 신천동 7-16,서울특별시 송파구 올림픽로35다길 13,127.100695635828,37.5157212326386
브루다여의도백상빌딩,,카페,커피 전문점,여의동,여의도동,서울특별시 영등포구 여의도동 35-2,서울특별시 영등포구 국제금융로6길 30,126.926587058402,37.521709875653
온달커피랩,,카페,김밥 및 기타 간이 음식점업,청구동,신당동,서울특별시 중구 신당동 294-81,서울특별시 중구 청구로 63-1,127.015074714675,37.5596401835855
카페보니또강남성심,,카페,커피 전문점,대림1동,대림동,서울특별시 영등포구 대림동 946-1,서울특별시 영등포구 시흥대로187길 12,126.908169240383,37.4930229703734
커피N빙수,,카페,커피 전문점,역촌동,역촌동,서울특별시 은평구 역촌동 38-7,서울특별시 은평구 진흥로1길 15,126.918528353568,37.6018557421867
프롤릭,,카페,커피 전문점,원효로1동,신계동,서울특별시 용산구 신계동 5-18,서울특별시 용산구 청파로 139-12,126.966789027044,37.5342775978834
리틀비터,,카페,커피 전문점,문정1동,문정동,서울특별시 송파구 문정동 20-1,서울특별시 송파구 송이로32길 30,127.126974701374,37.4874448608326
라비타,,카페,커피 전문점,종로1.2.3.4가동,관철동,서울특별시 종로구 관철동 25,서울특별시 종로구 종로16길 22,126.988563830815,37.5690571997121
멘보샤푸드트럭,,카페,커피 전문점,여의동,여의도동,서울특별시 영등포구 여의도동 8,서울특별시 영등포구 여의서로 60-2,126.923391369481,37.5315382008589
핸드릭스커피로스터스,,카페,커피 전문점,서교동,동교동,서울특별시 마포구 동교동 201-25,서울특별시 마포구 월드컵북로4길 20,126.92099701878,37.5571509491876
청맥,,카페,기타 비알코올 음료점업,수유1동,수유동,서울특별시 강북구 수유동 57-77,서울특별시 강북구 삼양로 302,127.017971094686,37.6303869422371
샵힘이나는커피생활서소문점,,카페,커피 전문점,소공동,서소문동,서울특별시 중구 서소문동 48-2,서울특별시 중구 서소문로 113,126.97352188687,37.5631156515792
컴포즈커피봉일,,카페,커피 전문점,은천동,봉천동,서울특별시 관악구 봉천동 951-1,서울특별시 관악구 은천로 36,126.939208186643,37.4860162704315
커피정,,카페,커피 전문점,갈현2동,갈현동,서울특별시 은평구 갈현동 462-52,서울특별시 은평구 연서로 177,126.91745907088,37.614685626232
카페니토,,카페,커피 전문점,상도2동,상도동,서울특별시 동작구 상도동 360-25,서울특별시 동작구 상도로15길 105,126.936603449411,37.5046445668038
투썸플레이스송파올림픽아파트,,카페,커피 전문점,오금동,오금동,서울특별시 송파구 오금동 4-9,서울특별시 송파구 위례성대로 198,127.13281685987,37.5093025995321
투썸플레이스,,카페,커피 전문점,면목3.8동,면목동,서울특별시 중랑구 면목동 56-2,서울특별시 중랑구 용마산로 384,127.095198882632,37.5858621799426
공감,,카페,커피 전문점,영등포동,영등포동6가,서울특별시 영등포구 영등포동6가 6-1,서울특별시 영등포구 영등포로 203-1,126.904242941911,37.5202612414815
레드래빗디저트,,카페,커피 전문점,중계4동,중계동,서울특별시 노원구 중계동 434-21,서울특별시 노원구 덕릉로 663,127.074494525093,37.6567576652809
제니스커피,,카페,서양식 음식점업,독산3동,독산동,서울특별시 금천구 독산동 951-4,서울특별시 금천구 남부순환로 1372,126.903379943085,37.4794989353519
회현카페,,카페,커피 전문점,회현동,회현동1가,서울특별시 중구 회현동1가 206,서울특별시 중구 퇴계로 72,126.980582926744,37.5591131321314
탐앤탐스왕십리센트라스점,,카페,커피 전문점,왕십리도선동,하왕십리동,서울특별시 성동구 하왕십리동 1070,서울특별시 성동구 왕십리로 410,127.024062147888,37.5665447401941
페이브베이커리흑석점,,카페,커피 전문점,흑석동,흑석동,서울특별시 동작구 흑석동 52-1,서울특별시 동작구 서달로14가길 1,126.963106855586,37.5076554233644
요거트얌,,카페,커피 전문점,삼성2동,삼성동,서울특별시 강남구 삼성동 5-1,서울특별시 강남구 선릉로130길 56,127.046287694278,37.5172857718314
커피101스트릿,,카페,커피 전문점,양평2동,양평동5가,서울특별시 영등포구 양평동5가 70-1,서울특별시 영등포구 양평로22나길 7-1,126.893582045438,37.5389485439911
카페빌라드그릭,,카페,커피 전문점,신촌동,창천동,서울특별시 서대문구 창천동 52-13,서울특별시 서대문구 연세로11길 28,126.935265085074,37.5590285012176
아크페브,,카페,커피 전문점,보광동,보광동,서울특별시 용산구 보광동 265-984,서울특별시 용산구 우사단로10길 92,127.000357333262,37.5319174457553
청담탑노치커피,,카페,기타 비알코올 음료점업,청담동,청담동,서울특별시 강남구 청담동 50-2,서울특별시 강남구 도산대로 522,127.050114514257,37.5241646158079
각자의취향,,카페,커피 전문점,동선동,동소문동6가,서울특별시 성북구 동소문동6가 75,서울특별시 성북구 동소문로17길 15,127.014837206781,37.5931389654899
글래드위드커피용산,,카페,커피 전문점,한강로동,한강로2가,서울특별시 용산구 한강로2가 422,서울특별시 용산구 한강대로 95,126.966638215317,37.5288069302388
테일러커피,,카페,커피 전문점,신사동,신사동,서울특별시 강남구 신사동 521-17,서울특별시 강남구 강남대로160길 31,127.021193742613,37.5201530646106
태담망우점,,카페,커피 전문점,망우본동,망우동,서울특별시 중랑구 망우동 207-2,서울특별시 중랑구 망우로 470,127.104312414698,37.6001321729256
더마실카페,,카페,커피 전문점,천호3동,천호동,서울특별시 강동구 천호동 167-73,서울특별시 강동구 진황도로27길 23,127.131811381974,37.539462639055
함께그린카페금나래문화체육,,카페,커피 전문점,독산1동,독산동,서울특별시 금천구 독산동 1148,서울특별시 금천구 시흥대로79길 32,126.896039491284,37.4589226852752
제이에스위드,,카페,커피 전문점,서초4동,서초동,서울특별시 서초구 서초동 1316-5,서울특별시 서초구 서초대로 397,127.024498668666,37.4974288106161
불암산카페,,카페,커피 전문점,상계3.4동,상계동,서울특별시 노원구 상계동 72-97,서울특별시 노원구 덕릉로124길 5,127.081359438988,37.6698853308586
엠제이와이,,카페,커피 전문점,용신동,용두동,서울특별시 동대문구 용두동 27-26,서울특별시 동대문구 고산자로30길 13,127.03903998613,37.5760835276589
요거프레소,,카페,커피 전문점,정릉3동,정릉동,서울특별시 성북구 정릉동 396-41,서울특별시 성북구 보국문로11길 23,127.008755665691,37.6085588781975
인바이티드,,카페,커피 전문점,한강로동,한강로1가,서울특별시 용산구 한강로1가 221-8,서울특별시 용산구 한강대로52길 41,126.973209404294,37.5314412394736
요거프레소,,카페,커피 전문점,전농2동,전농동,서울특별시 동대문구 전농동 32-4,서울특별시 동대문구 사가정로 122,127.05849815278,37.5772044420391
텐퍼센트서초마제스타,,카페,커피 전문점,서초3동,서초동,서울특별시 서초구 서초동 1498-5,서울특별시 서초구 서초대로38길 12,127.005365171451,37.4904843229745
하이커피,,카페,기타 음ㆍ식료품 위주 종합 소매업,발산1동,마곡동,서울특별시 강서구 마곡동 800-4,서울특별시 강서구 공항대로 222,126.832160634683,37.5586573266931
원모어프로포즈,,카페,커피 전문점,연남동,연남동,서울특별시 마포구 연남동 223-44,서울특별시 마포구 성미산로31길 13,126.925518782972,37.5646257539573
커스텀커피봉천e편한세상점,,카페,커피 전문점,청룡동,봉천동,서울특별시 관악구 봉천동 1539-11,서울특별시 관악구 참숯1길 14,126.941774036342,37.4788669133671
하나준,,카페,커피 전문점,도림동,도림동,서울특별시 영등포구 도림동 165-1,서울특별시 영등포구 도림로 365,126.898652097279,37.5088831254982
아띠,,카페,커피 전문점,서초1동,서초동,서울특별시 서초구 서초동 1445-3,서울특별시 서초구 효령로 304,127.017789088758,37.4847223943346
커피에반하다시흥유통,,카페,커피 전문점,시흥1동,시흥동,서울특별시 금천구 시흥동 985-12,서울특별시 금천구 시흥대로 143,126.903064794549,37.4469049920091
매머드익스프레스장미,,카페,커피 전문점,잠실6동,신천동,서울특별시 송파구 신천동 7,서울특별시 송파구 올림픽로35길 104,127.099289046588,37.5198103241711
언더그라운드커피웍스,,카페,커피 전문점,정릉3동,정릉동,서울특별시 성북구 정릉동 957-10,서울특별시 성북구 정릉로6길 23,126.995110128568,37.6100743477955
별빛,,카페,기타 비알코올 음료점업,용신동,신설동,서울특별시 동대문구 신설동 104-49,서울특별시 동대문구 난계로30길 24,127.024540924058,37.5740994472862
카모플라쥬커피,,카페,커피 전문점,성수1가2동,성수동1가,서울특별시 성동구 성수동1가 656-703,서울특별시 성동구 아차산로1길 9,127.045668988916,37.5489797549621
카페,,카페,커피 전문점,신정1동,신정동,서울특별시 양천구 신정동 1014-5,서울특별시 양천구 은행정로4길 25,126.862583406992,37.5214622186626
포트캔커피,,카페,커피 전문점,당산1동,당산동3가,서울특별시 영등포구 당산동3가 552-3,서울특별시 영등포구 선유동1로 32,126.892273090577,37.5249341095691
와샌,,카페,커피 전문점,공덕동,공덕동,서울특별시 마포구 공덕동 27-11,서울특별시 마포구 만리재로 112-14,126.960624244359,37.5496403588225
오고,,카페,커피 전문점,광장동,광장동,서울특별시 광진구 광장동 285-7,서울특별시 광진구 광장로 71-1,127.105098321506,37.5477241149585
일이오커피리안,,카페,커피 전문점,녹번동,녹번동,서울특별시 은평구 녹번동 82-21,서울특별시 은평구 녹번로 5,126.926655121183,37.6029571110803
마실다실더플라워,,카페,커피 전문점,신정7동,신정동,서울특별시 양천구 신정동 1325-3,서울특별시 양천구 목동남로 106,126.870176670591,37.5107946999446
비엔에이빈스,,카페,커피 전문점,압구정동,신사동,서울특별시 강남구 신사동 640-11,서울특별시 강남구 언주로172길 25,127.036020190485,37.5275284754155
러프스톤,,카페,커피 전문점,역삼1동,역삼동,서울특별시 강남구 역삼동 737,서울특별시 강남구 테헤란로 152,127.036487118737,37.5000141135255
무소식,,카페,커피 전문점,서교동,서교동,서울특별시 마포구 서교동 405-3,서울특별시 마포구 잔다리로 19,126.920853432198,37.5506261142324
포트캔커피응암역점,,카페,커피 전문점,응암1동,응암동,서울특별시 은평구 응암동 115-3,서울특별시 은평구 은평로8길 18,126.92003230767,37.5988780880276
커피디엔에이로스팅컴퍼니,,카페,커피 전문점,이문1동,이문동,서울특별시 동대문구 이문동 264-173,서울특별시 동대문구 천장산로4길 48,127.057838366769,37.5990134478712
카페소,,카페,기타 비알코올 음료점업,안암동,안암동1가,서울특별시 성북구 안암동1가 46,서울특별시 성북구 고려대로7마길 18,127.020156347766,37.5890474667741
커피온리,,카페,커피 전문점,화양동,화양동,서울특별시 광진구 화양동 428-1,서울특별시 광진구 광나루로24길 29,127.076769023813,37.5452353633101
포라운지,,카페,커피 전문점,서교동,동교동,서울특별시 마포구 동교동 152-7,서울특별시 마포구 양화로21길 37,126.924264430539,37.5597577357038
이디야등촌역점,,카페,커피 전문점,등촌2동,등촌동,서울특별시 강서구 등촌동 509-1,서울특별시 강서구 등촌로 217,126.863294073943,37.5491759557566
감성커피월계점,,카페,커피 전문점,월계2동,월계동,서울특별시 노원구 월계동 776,서울특별시 노원구 초안산로5길 12,127.05172756242,37.6325552502568
카페이루,,카페,커피 전문점,인수동,수유동,서울특별시 강북구 수유동 520,서울특별시 강북구 삼각산로 58,127.010371067083,37.6387841467301
카페다비다,,카페,커피 전문점,구의1동,구의동,서울특별시 광진구 구의동 221-28,서울특별시 광진구 자양로18길 95,127.088707163979,37.5387864570449
나를위한하루날위한커피,,카페,커피 전문점,종암동,종암동,서울특별시 성북구 종암동 40-1,서울특별시 성북구 종암로9길 20,127.034391861764,37.5958685333494
마치커피,,카페,커피 전문점,여의동,여의도동,서울특별시 영등포구 여의도동 43-3,서울특별시 영등포구 국제금융로 78,126.931282658084,37.5208604254688
카페홈즈,,카페,커피 전문점,발산1동,마곡동,서울특별시 강서구 마곡동 800-3,서울특별시 강서구 공항대로 220,126.831752677974,37.5586893317658
12번가익스프레스,,카페,커피 전문점,화곡본동,화곡동,서울특별시 강서구 화곡동 772-24,서울특별시 강서구 까치산로18길 50-18,126.850558994776,37.5457278475548
이디야신월7동점,,카페,커피 전문점,신월7동,신월동,서울특별시 양천구 신월동 932-1,서울특별시 양천구 지양로 79,126.832974665135,37.5224167796533
파서루,,카페,커피 전문점,수서동,수서동,서울특별시 강남구 수서동 450-3,서울특별시 강남구 광평로46길 5,127.099163436051,37.4860196439009
유니카페,,카페,커피 전문점,시흥5동,시흥동,서울특별시 금천구 시흥동 827-28,서울특별시 금천구 금하로23가길 29,126.91035179825,37.4517479869542
카페올,,카페,커피 전문점,개포4동,개포동,서울특별시 강남구 개포동 1226-11,서울특별시 강남구 논현로16길 12,127.047408274454,37.4762787123331
카페투어인케이씨,,카페,커피 전문점,당산2동,당산동4가,서울특별시 영등포구 당산동4가 32-2,서울특별시 영등포구 국회대로37길 25,126.900562523597,37.5290031845844
글래드유케임,,카페,커피 전문점,용산2가동,용산동2가,서울특별시 용산구 용산동2가 5-1161,서울특별시 용산구 신흥로 111,126.983439615186,37.5446219446166
잇츠모어,,카페,커피 전문점,성내1동,성내동,서울특별시 강동구 성내동 559-1,서울특별시 강동구 성안로3길 112-12,127.124246285821,37.5283868604573
카페아이엠티중앙대평동캠퍼스점,,카페,커피 전문점,교남동,평동,서울특별시 종로구 평동 85-15,서울특별시 종로구 경교장길 8,126.966286337646,37.5674045463856
카페레옹,,카페,커피 전문점,방이1동,방이동,서울특별시 송파구 방이동 211-6,서울특별시 송파구 마천로 2,127.12122245053,37.5103162031258
어딕티브,,카페,기타 비알코올 음료점업,반포1동,반포동,서울특별시 서초구 반포동 711-24,서울특별시 서초구 주흥15길 5,127.018589734569,37.5090845568285
세라떼,,카페,커피 전문점,영등포본동,신길동,서울특별시 영등포구 신길동 169-16,서울특별시 영등포구 도신로65길 9-1,126.91664000437,37.5133204335988
카페가성비,,카페,커피 전문점,이문1동,이문동,서울특별시 동대문구 이문동 287-36,서울특별시 동대문구 이문로 96-1,127.059729324955,37.5954333683342
제이,,카페,커피 전문점,영등포동,영등포동3가,서울특별시 영등포구 영등포동3가 30,서울특별시 영등포구 영등포로 236-2,126.907582953603,37.5192920248129
카페드롭탑,,카페,커피 전문점,가산동,가산동,서울특별시 금천구 가산동 233-5,서울특별시 금천구 디지털로10길 69,126.890835546315,37.4752910775564
봉화산커피,,카페,커피 전문점,신내2동,신내동,서울특별시 중랑구 신내동 648,서울특별시 중랑구 신내로 225,127.091344647363,37.6169636426179
다락방이야기,,카페,기타 비알코올 음료점업,홍은2동,홍은동,서울특별시 서대문구 홍은동 400-18,서울특별시 서대문구 명지대2길 28,126.925432905854,37.5824204426495
고미푸딩,,카페,커피 전문점,망원1동,망원동,서울특별시 마포구 망원동 394-2,서울특별시 마포구 동교로 27-9,126.905114177193,37.5527518275871
컴포즈신월양강점,,카페,커피 전문점,신월2동,신월동,서울특별시 양천구 신월동 491-23,서울특별시 양천구 오목로 69,126.845410588324,37.5229444800061
칠린,,카페,커피 전문점,혜화동,명륜4가,서울특별시 종로구 명륜4가 167-2,서울특별시 종로구 대학로11길 41-8,126.999346249012,37.5821601280137
제이에스라운지,,카페,커피 전문점,망원1동,망원동,서울특별시 마포구 망원동 382-6,서울특별시 마포구 월드컵로15길 56,126.90772487829,37.5545510535298
이디야남부고용,,카페,커피 전문점,양평1동,양평동3가,서울특별시 영등포구 양평동3가 7-2,서울특별시 영등포구 양산로 71,126.891083901403,37.5250220638522
카페밤비,,카페,커피 전문점,망원1동,망원동,서울특별시 마포구 망원동 57-498,서울특별시 마포구 월드컵로21길 18,126.908031234494,37.5568245025351
커피방앗간Coffee&Sandwich,,카페,커피 전문점,삼전동,삼전동,서울특별시 송파구 삼전동 46-8,서울특별시 송파구 백제고분로22길 11,127.089178970488,37.5027748913637
메가커피숙대,,카페,한식 면 요리 전문점,남영동,갈월동,서울특별시 용산구 갈월동 90-15,서울특별시 용산구 한강대로 277-2,126.972201426584,37.5430559563099
커피루다,,카페,커피 전문점,목1동,목동,서울특별시 양천구 목동 923-14,서울특별시 양천구 목동동로 233-1,126.871554250266,37.5274771147
멜라르,,카페,커피 전문점,양평1동,양평동2가,서울특별시 영등포구 양평동2가 31-16,서울특별시 영등포구 영등포로5길 24-1,126.884668818195,37.5242948833764
에슬로우,,카페,커피 전문점,공릉2동,공릉동,서울특별시 노원구 공릉동 90-4,서울특별시 노원구 노원로 3,127.086639052799,37.6219821545308
베티버,,카페,커피 전문점,성수2가1동,성수동2가,서울특별시 성동구 성수동2가 339-71,서울특별시 성동구 성덕정11길 18,127.053174999868,37.5389123797127
디폴트커피공방,,카페,커피 전문점,삼선동,동소문동5가,서울특별시 성북구 동소문동5가 120,서울특별시 성북구 보문로38길 11,127.014800192158,37.5916519402003
에빈의커피이야기,,카페,커피 전문점,필동,필동2가,서울특별시 중구 필동2가 70-5,서울특별시 중구 퇴계로42길 35,126.996482543797,37.5601684109868
다락쿠키,,카페,커피 전문점,길동,길동,서울특별시 강동구 길동 329-3,서울특별시 강동구 양재대로124길 65,127.145729287342,37.5424655455025
반달커피서울,,카페,커피 전문점,화곡2동,화곡동,서울특별시 강서구 화곡동 859-10,서울특별시 강서구 곰달래로 189,126.854039066489,37.5312910360701
카페차이관악,,카페,커피 전문점,성현동,봉천동,서울특별시 관악구 봉천동 480-3,서울특별시 관악구 은천로25길 69,126.948335776695,37.4890623317014
빽다방상계,,카페,커피 전문점,상계5동,상계동,서울특별시 노원구 상계동 456-129,서울특별시 노원구 한글비석로52길 16,127.066523576332,37.6651916023066
벨루스,,카페,커피 전문점,한남동,한남동,서울특별시 용산구 한남동 683-1,서울특별시 용산구 이태원로54길 20,127.00201428139,37.5374819150155
초연,,카페,커피 전문점,연남동,연남동,서울특별시 마포구 연남동 564-10,서울특별시 마포구 월드컵북로8길 23,126.918461017608,37.5595515378421
나우커피마포도화점,,카페,자동 판매기 운영업,도화동,도화동,서울특별시 마포구 도화동 6-36,서울특별시 마포구 도화4길 68,126.951332298225,37.5391871958058
마치,,카페,커피 전문점,장안2동,장안동,서울특별시 동대문구 장안동 339-19,서울특별시 동대문구 장한로18길 57,127.072052909152,37.5678237474003
청수당,,카페,기타 비알코올 음료점업,종로1.2.3.4가동,익선동,서울특별시 종로구 익선동 144,서울특별시 종로구 돈화문로11나길 31-9,126.989744142341,37.5738608473255
니르코브,,카페,커피 전문점,서빙고동,동빙고동,서울특별시 용산구 동빙고동 195,서울특별시 용산구 서빙고로71길 25,126.99545809472,37.5218021494178
기웃기웃협동조합,,카페,커피 전문점,서교동,노고산동,서울특별시 마포구 노고산동 56-16,서울특별시 마포구 신촌로12다길 20,126.93359702003,37.5545623106296
알비커피,,카페,기타 비알코올 음료점업,명동,을지로2가,서울특별시 중구 을지로2가 1-1,서울특별시 중구 을지로 42,126.98235626293,37.5660394253604
할리스가맹,,카페,커피 전문점,신사1동,신사동,서울특별시 은평구 신사동 23-3,서울특별시 은평구 증산로 475,126.915313527227,37.5986365860758
복고다방사가정역점,,카페,커피 전문점,면목7동,면목동,서울특별시 중랑구 면목동 627-1,서울특별시 중랑구 면목로 290,127.086298111612,37.5785492022582
커피토아,,카페,커피 전문점,방이2동,방이동,서울특별시 송파구 방이동 98-7,서울특별시 송파구 올림픽로32길 37,127.110477688981,37.5131011429685
모리셔스브라운,,카페,커피 전문점,서교동,서교동,서울특별시 마포구 서교동 477-4,서울특별시 마포구 월드컵로10길 39,126.913642399762,37.5554436158944
컴포즈커피광진,,카페,커피 전문점,구의2동,구의동,서울특별시 광진구 구의동 31-23,서울특별시 광진구 자양로 312,127.093388233927,37.5530951589161
용커피,,카페,커피 전문점,송중동,미아동,서울특별시 강북구 미아동 856-16,서울특별시 강북구 오패산로30길 6,127.034515712175,37.6134488316575
파스쿠찌까치산역점,,카페,커피 전문점,화곡8동,화곡동,서울특별시 강서구 화곡동 897-14,서울특별시 강서구 곰달래로 134,126.847771612974,37.5305182307915
고품격커피공장뱅뱅,,카페,커피 전문점,도곡1동,도곡동,서울특별시 강남구 도곡동 945-18,서울특별시 강남구 도곡로4길 18,127.033825525941,37.4889003732223
호정개발오페뜨,,카페,커피 전문점,화양동,화양동,서울특별시 광진구 화양동 5-103,서울특별시 광진구 능동로 111,127.070835091269,37.5410079404983
카페1987,,카페,커피 전문점,노량진1동,노량진동,서울특별시 동작구 노량진동 114-5,서울특별시 동작구 노량진로 162,126.943944882169,37.5133965277416
유앤미,,카페,커피 전문점,이문2동,이문동,서울특별시 동대문구 이문동 255-23,서울특별시 동대문구 이문로 193,127.061865944665,37.6038390746735
허리케인,,카페,커피 전문점,을지로동,을지로4가,서울특별시 중구 을지로4가 188-7,서울특별시 중구 을지로 218,127.003378225086,37.5667683992522
요거트월드,,아이스크림/빙수,커피 전문점,도봉1동,도봉동,서울특별시 도봉구 도봉동 597-43,서울특별시 도봉구 도봉로169나길 56,127.043563876742,37.6772256352319
포이커피앤베이킹,,카페,커피 전문점,개포4동,개포동,서울특별시 강남구 개포동 1200-5,서울특별시 강남구 논현로12길 33,127.050174187189,37.4757062796752
이디야커피쌍문점,,카페,커피 전문점,쌍문3동,쌍문동,서울특별시 도봉구 쌍문동 88-20,서울특별시 도봉구 도봉로117길 4,127.034684602871,37.6494375806127
메가엠지씨커피독바위역점,,카페,커피 전문점,불광1동,불광동,서울특별시 은평구 불광동 13-18,서울특별시 은평구 불광로 130-1,126.933184324545,37.6183969219211
파도,,카페,커피 전문점,서교동,서교동,서울특별시 마포구 서교동 399-10,서울특별시 마포구 양화로6길 57-14,126.918012459134,37.5490863679144
개스타운커피,,카페,커피 전문점,가양1동,마곡동,서울특별시 강서구 마곡동 797-4,서울특별시 강서구 공항대로 261,126.836499311706,37.5591416702084
이디야응봉동점,,카페,커피 전문점,응봉동,응봉동,서울특별시 성동구 응봉동 98,서울특별시 성동구 독서당로 377,127.03112925594,37.5505282828068
카페엔젤,,카페,커피 전문점,용신동,용두동,서울특별시 동대문구 용두동 29-1,서울특별시 동대문구 왕산로28길 55,127.039158278842,37.5756880310507
요거프레소새절역점,,카페,커피 전문점,신사2동,신사동,서울특별시 은평구 신사동 335-27,서울특별시 은평구 가좌로 271,126.913393490514,37.592834296779
커피중공업,,카페,커피 전문점,이화동,동숭동,서울특별시 종로구 동숭동 130-17,서울특별시 종로구 동숭2길 9,127.004797814173,37.5808816862803
모닝캄컴퍼니,,카페,커피 전문점,당산2동,당산동4가,서울특별시 영등포구 당산동4가 36-3,서울특별시 영등포구 당산로35길 1,126.897297651242,37.5286754005026
카페이지,,카페,커피 전문점,영등포동,영등포동8가,서울특별시 영등포구 영등포동8가 80-2,서울특별시 영등포구 영중로 138-1,126.906043599588,37.5286486165952
웰유,,카페,커피 전문점,독산1동,독산동,서울특별시 금천구 독산동 1009-29,서울특별시 금천구 시흥대로 351,126.897115305299,37.4649427395756
셰이디드,,카페,커피 전문점,혜화동,명륜3가,서울특별시 종로구 명륜3가 136-1,서울특별시 종로구 성균관로3길 15,126.997282342528,37.5832508932958
가배유정,,카페,커피 전문점,송파1동,송파동,서울특별시 송파구 송파동 51-3,서울특별시 송파구 오금로18길 8,127.11045685055,37.5100914500301
카페참새방앗간,,카페,커피 전문점,방배2동,방배동,서울특별시 서초구 방배동 456-26,서울특별시 서초구 방배천로4안길 66,126.983431834533,37.4809807283344
카페일삼공,,카페,커피 전문점,수유3동,수유동,서울특별시 강북구 수유동 130-43,서울특별시 강북구 수유로17나길 15,127.018376972049,37.6374273971867
디폴트,,카페,커피 전문점,여의동,여의도동,서울특별시 영등포구 여의도동 14-14,서울특별시 영등포구 국회대로70길 23,126.920997285747,37.5288672853239
모츠,,카페,커피 전문점,화양동,화양동,서울특별시 광진구 화양동 15-20,서울특별시 광진구 군자로3길 14,127.070427716629,37.5446539924935
더빌리져,,카페,커피 전문점,금호4가동,금호동4가,서울특별시 성동구 금호동4가 660,서울특별시 성동구 독서당로46가길 28,127.021335598814,37.5473929637186
카페누마루,,카페,기타 비알코올 음료점업,홍은2동,홍은동,서울특별시 서대문구 홍은동 202-5,서울특별시 서대문구 연희로 377,126.939305126178,37.5909976287567
킹프레소,,카페,커피 전문점,화양동,화양동,서울특별시 광진구 화양동 113-1,서울특별시 광진구 능동로19길 35,127.071835039837,37.5470618587479
착한커피,,카페,커피 전문점,서교동,노고산동,서울특별시 마포구 노고산동 56-6,서울특별시 마포구 신촌로16길 30,126.934244357309,37.554405968518
커피산책,,카페,커피 전문점,당산2동,당산동4가,서울특별시 영등포구 당산동4가 99,서울특별시 영등포구 영신로 237,126.902818289186,37.5287087993855
고호재롯데월드몰점,,카페,커피 전문점,잠실6동,신천동,서울특별시 송파구 신천동 29,서울특별시 송파구 올림픽로 300,127.10428390105,37.5136310129521
컴포즈커피위례포레샤인점,,카페,커피 전문점,위례동,거여동,서울특별시 송파구 거여동 651,서울특별시 송파구 위례송파로 123,127.1477797448,37.4845691887152
커피사피엔스,,카페,커피 전문점,가양1동,마곡동,서울특별시 강서구 마곡동 791-5,서울특별시 강서구 마곡중앙8로5길 11,126.837079015365,37.5618955275336
비비커피,,카페,커피 전문점,사당1동,사당동,서울특별시 동작구 사당동 1010-18,서울특별시 동작구 동작대로13길 16-4,126.980162548758,37.4819347028244
메종인디아트래블앤북스,,카페,기타 비알코올 음료점업,방배1동,방배동,서울특별시 서초구 방배동 327-6,서울특별시 서초구 방배로23길 31-43,126.992207235899,37.4850836226033
폴린커피바,,카페,커피 전문점,성수2가3동,성수동2가,서울특별시 성동구 성수동2가 301-8,서울특별시 성동구 연무장3길 13,127.051639449995,37.5449010525089
트라이앵글커피,,카페,커피 전문점,오금동,오금동,서울특별시 송파구 오금동 133-23,서울특별시 송파구 마천로 196,127.140387430066,37.502095380838
엔젤디오덕성,,카페,기타 비알코올 음료점업,종로1.2.3.4가동,운니동,서울특별시 종로구 운니동 98-3,서울특별시 종로구 삼일대로 460,126.988144519068,37.5766223527446
더벤티마들역점,,카페,커피 전문점,상계8동,상계동,서울특별시 노원구 상계동 651-6,서울특별시 노원구 동일로 1533,127.057227039516,37.6653609412374
이디야커피숍,,카페,커피 전문점,양재2동,양재동,서울특별시 서초구 양재동 230,서울특별시 서초구 청계산로 10,127.043512405948,37.4634882222877
홍팥집,,카페,커피 전문점,도곡1동,도곡동,서울특별시 강남구 도곡동 950-5,서울특별시 강남구 남부순환로359길 31,127.035548407208,37.4868239977911
키스톤,,카페,그 외 기타 스포츠 서비스업,서초4동,서초동,서울특별시 서초구 서초동 1316-29,서울특별시 서초구 서초대로73길 9,127.025211135746,37.4982997046774
퍼스트커피랩예술의전당점,,카페,커피 전문점,서초3동,서초동,서울특별시 서초구 서초동 1446-11,서울특별시 서초구 서초중앙로 15,127.015629367095,37.4830014228769
카페루이,,카페,커피 전문점,번1동,번동,서울특별시 강북구 번동 460-50,서울특별시 강북구 한천로124길 3,127.031991477973,37.6369091632136
옹쥬르,,카페,커피 전문점,미아동,미아동,서울특별시 강북구 미아동 125-56,서울특별시 강북구 솔매로50길 32,127.027331274919,37.625004200206
히시커피,,카페,커피 전문점,당산1동,당산동3가,서울특별시 영등포구 당산동3가 398-20,서울특별시 영등포구 당산로29길 3,126.894759407527,37.5258764663443
리드커피스탠드,,카페,커피 전문점,삼성2동,삼성동,서울특별시 강남구 삼성동 39-9,서울특별시 강남구 선릉로112길 21,127.045307731691,37.5116282465428
수커피,,카페,커피 전문점,서초4동,서초동,서울특별시 서초구 서초동 1302-23,서울특별시 서초구 사평대로52길 1,127.022203123872,37.5034829392184
온센구점,,카페,커피 전문점,이문1동,이문동,서울특별시 동대문구 이문동 327-7,서울특별시 동대문구 이문로 89,127.058987459638,37.5949949552954
플랏쓰리,,카페,커피 전문점,사근동,행당동,서울특별시 성동구 행당동 32-21,서울특별시 성동구 왕십리로 215-2,127.042853067769,37.5567870696089
와이씨에프엔비,,카페,커피 전문점,송파1동,송파동,서울특별시 송파구 송파동 27-12,서울특별시 송파구 백제고분로41길 30,127.106696977476,37.5085763281165
누보,,카페,커피 전문점,서교동,서교동,서울특별시 마포구 서교동 332-8,서울특별시 마포구 와우산로29마길 16,126.926408295579,37.5554883052237
차수서역사점카페차,,카페,커피 전문점,수서동,수서동,서울특별시 강남구 수서동 214-2,서울특별시 강남구 밤고개로 99,127.104541767706,37.4854117653285
문랜딩,,카페,커피 전문점,보광동,보광동,서울특별시 용산구 보광동 390-2,서울특별시 용산구 장문로17길 3,126.997289004107,37.5261607650686
더벤티NC강서점,,카페,커피 전문점,등촌3동,등촌동,서울특별시 강서구 등촌동 689,서울특별시 강서구 강서로56길 17,126.840482624445,37.5599197053739
투썸플레이스성수SKV,,카페,커피 전문점,성수2가3동,성수동2가,서울특별시 성동구 성수동2가 315-61,서울특별시 성동구 연무장5가길 25,127.055594654757,37.5435451350614
공차을지로트윈,,카페,기타 비알코올 음료점업,을지로동,을지로4가,서울특별시 중구 을지로4가 323,서울특별시 중구 을지로 170,126.9973081179,37.5661313217512
경동흥업,,카페,커피 전문점,숭인2동,숭인동,서울특별시 종로구 숭인동 1396,서울특별시 종로구 난계로 241,127.022854528565,37.5732024775011
"소잉카페,이어지다",,카페,커피 전문점,대흥동,노고산동,서울특별시 마포구 노고산동 1-21,서울특별시 마포구 신촌로 142,126.94128200309,37.5561452203473
공차마곡역점,,카페,커피 전문점,발산1동,마곡동,서울특별시 강서구 마곡동 798-3,서울특별시 강서구 공항대로 168,126.826118488312,37.5592641664068
낫낫커피,,카페,커피 전문점,연남동,연남동,서울특별시 마포구 연남동 366-22,서울특별시 마포구 연남로7길 14,126.91950502608,37.564066285969
랄프앤코스토어,,카페,커피 전문점,보라매동,봉천동,서울특별시 관악구 봉천동 731-1,서울특별시 관악구 보라매로 25,126.926619403879,37.4918044372952
설빙노량진점,,카페,커피 전문점,노량진1동,노량진동,서울특별시 동작구 노량진동 59-29,서울특별시 동작구 노량진로 144,126.941852006742,37.5134138384229
커피테르미니,,카페,커피 전문점,한강로동,한강로3가,서울특별시 용산구 한강로3가 40-999,서울특별시 용산구 한강대로21나길 7,126.963222625326,37.527902979157
이히리베디히,,카페,커피 전문점,구의2동,구의동,서울특별시 광진구 구의동 16-8,서울특별시 광진구 영화사로 75,127.0942750255,37.5546337519663
로우커피스탠드,,카페,커피 전문점,성수2가1동,성수동2가,서울특별시 성동구 성수동2가 272-30,서울특별시 성동구 연무장길 94,127.059518492732,37.5410715311203
론드,,카페,기타 비알코올 음료점업,여의동,여의도동,서울특별시 영등포구 여의도동 43-4,서울특별시 영등포구 국제금융로 86,126.931778543643,37.5201981385118
터치카페,,카페,커피 전문점,응암1동,응암동,서울특별시 은평구 응암동 97-28,서울특별시 은평구 은평로12길 7-10,126.925663414747,37.600254000701
마린커피빅히트사옥점,,카페,커피 전문점,한강로동,한강로3가,서울특별시 용산구 한강로3가 65-357,서울특별시 용산구 한강대로10길 11-48,126.964763294029,37.5244835076727
커피셀러,,카페,커피 전문점,세곡동,자곡동,서울특별시 강남구 자곡동 653,서울특별시 강남구 자곡로 186,127.103647852816,37.4741056564702
카페프리그,,카페,커피 전문점,장안2동,장안동,서울특별시 동대문구 장안동 107-8,서울특별시 동대문구 사가정로 207,127.067987318385,37.5788655845499
매머드익스프레스충무로역점,,카페,커피 전문점,필동,필동1가,서울특별시 중구 필동1가 35-1,서울특별시 중구 퇴계로 192,126.99311292796,37.5607614415802
안녕크로플,,카페,커피 전문점,우이동,우이동,서울특별시 강북구 우이동 100-39,서울특별시 강북구 삼양로149길 6-12,127.012474475981,37.6544977481189
달달해,,카페,커피 전문점,서초3동,서초동,서울특별시 서초구 서초동 1486-12,서울특별시 서초구 반포대로9길 52,127.008810572305,37.4830525404572
매머드익스프레스메세나폴리스점,,카페,커피 전문점,서교동,서교동,서울특별시 마포구 서교동 490,서울특별시 마포구 양화로 45,126.913937441506,37.5514907709978
빽다방,,카페,커피 전문점,삼전동,삼전동,서울특별시 송파구 삼전동 101-9,서울특별시 송파구 백제고분로 257,127.095116956094,37.5027574528443
오전오후,,카페,커피 전문점,답십리2동,답십리동,서울특별시 동대문구 답십리동 35-2,서울특별시 동대문구 전농로 54,127.057370747925,37.5696446797256
무자스콘,,카페,커피 전문점,양평1동,양평동3가,서울특별시 영등포구 양평동3가 32-14,서울특별시 영등포구 선유서로31길 2,126.886151073987,37.5265614739041
크레이저커피,,카페,커피 전문점,잠원동,잠원동,서울특별시 서초구 잠원동 28-1,서울특별시 서초구 강남대로 581,127.019762756075,37.5136626341355
프루코&드루와,,카페,기타 비알코올 음료점업,사당1동,사당동,서울특별시 동작구 사당동 1040-4,서울특별시 동작구 동작대로7길 65,126.979131156032,37.4779611560665
서울테라리움-피어나,,카페,커피 전문점,신사동,신사동,서울특별시 강남구 신사동 559-30,서울특별시 강남구 도산대로19길 20,127.025268306352,37.5199975412764
오아시스,,카페,커피 전문점,화곡8동,화곡동,서울특별시 강서구 화곡동 894-19,서울특별시 강서구 강서로10길 8,126.848139287568,37.530152392605
대오서점,,카페,커피 전문점,청운효자동,누하동,서울특별시 종로구 누하동 33,서울특별시 종로구 자하문로7길 55,126.969308632187,37.5797301642527
레바브,,카페,커피 전문점,대치2동,대치동,서울특별시 강남구 대치동 982-9,서울특별시 강남구 영동대로65길 10,127.065482068924,37.5020581754502
투썸플레이스한양대엔터식스,,카페,커피 전문점,사근동,행당동,서울특별시 성동구 행당동 377,서울특별시 성동구 왕십리로 241,127.040086868714,37.5571430520835
컴포즈커피,,카페,커피 전문점,화양동,화양동,서울특별시 광진구 화양동 12-34,서울특별시 광진구 능동로13길 30,127.070579159,37.543393712876
인마이메모리,,카페,커피 전문점,남영동,갈월동,서울특별시 용산구 갈월동 86-2,서울특별시 용산구 한강대로87길 12,126.971426014163,37.544310666509
크로프룻,,카페,커피 전문점,서림동,신림동,서울특별시 관악구 신림동 103-103,서울특별시 관악구 서림3길 42,126.940225543202,37.4724285322397
경성빙수,,카페,커피 전문점,성현동,봉천동,서울특별시 관악구 봉천동 493-4,서울특별시 관악구 양녕로 62,126.946830278387,37.4875621865292
텀브커피강동성심,,카페,커피 전문점,길동,길동,서울특별시 강동구 길동 446,서울특별시 강동구 진황도로 86,127.135889498356,37.5361316109119
더벤티가양역점,,카페,커피 전문점,등촌3동,등촌동,서울특별시 강서구 등촌동 78-7,서울특별시 강서구 양천로 492,126.854604851846,37.56086849174
수카페&쿠킹스튜디오,,카페,기타 비알코올 음료점업,신촌동,창천동,서울특별시 서대문구 창천동 510-11,서울특별시 서대문구 신촌로1길 7,126.928114974009,37.5588106254793
빽다방상계역점,,카페,커피 전문점,중계4동,중계동,서울특별시 노원구 중계동 606,서울특별시 노원구 덕릉로83길 9-7,127.073807036071,37.6591850621254
투썸플레이스,,카페,커피 전문점,금호2.3가동,금호동2가,서울특별시 성동구 금호동2가 1217,서울특별시 성동구 금호로 107,127.024294242873,37.5522200305779
노이어커피,,카페,커피 전문점,삼선동,삼선동4가,서울특별시 성북구 삼선동4가 26,서울특별시 성북구 삼선교로 49-2,127.011192478448,37.5887474526826
할리스커피백석예술대학교점,,카페,치킨 전문점,방배3동,방배동,서울특별시 서초구 방배동 981-7,서울특별시 서초구 방배로9길 23,126.996883688796,37.4803658491494
플룬,,카페,커피 전문점,일원1동,일원동,서울특별시 강남구 일원동 683-15,서울특별시 강남구 일원로5길 7,127.081519134052,37.4910108251667
기가차,,카페,기타 비알코올 음료점업,여의동,여의도동,서울특별시 영등포구 여의도동 1,서울특별시 영등포구 의사당대로 1,126.916390813686,37.5328978176022
와플에구름,,카페,기타 비알코올 음료점업,압구정동,신사동,서울특별시 강남구 신사동 660-10,서울특별시 강남구 압구정로50길 8,127.038019504342,37.5277790512041
시나본이대서울,,카페,커피 전문점,발산1동,마곡동,서울특별시 강서구 마곡동 808,서울특별시 강서구 공항대로 260,126.836245682527,37.5572560142505
"카페,바이이브릭",,카페,커피 전문점,역삼1동,역삼동,서울특별시 강남구 역삼동 833-3,서울특별시 강남구 역삼로 122,127.033028451733,37.4937145045643
카페프랜즈,,카페,커피 전문점,화곡1동,화곡동,서울특별시 강서구 화곡동 401-12,서울특별시 강서구 강서로 137,126.841799320932,37.5391998521477
카페소소리,,카페,커피 전문점,아현동,공덕동,서울특별시 마포구 공덕동 373-8,서울특별시 마포구 마포대로7길 27,126.951726890871,37.5473721693957
에그라상,,카페,커피 전문점,종로1.2.3.4가동,관철동,서울특별시 종로구 관철동 43-11,서울특별시 종로구 청계천로 57,126.984037348175,37.568946248288
할리스커피수락산역점,,카페,커피 전문점,상계1동,상계동,서울특별시 노원구 상계동 1118-38,서울특별시 노원구 동일로239가길 22,127.054823341696,37.6761450684035
커피마마퀸,,카페,커피 전문점,대치4동,대치동,서울특별시 강남구 대치동 891-26,서울특별시 강남구 삼성로85길 42,127.053790201201,37.5045421220579
커피프릭COFFEEFREAK,,카페,커피 전문점,아현동,아현동,서울특별시 마포구 아현동 332-7,서울특별시 마포구 굴레방로7길 22,126.954260981592,37.556341985548
디어모먼트,,카페,커피 전문점,대흥동,대흥동,서울특별시 마포구 대흥동 246,서울특별시 마포구 대흥로 80-34,126.942002287168,37.5468259027054
커피스미스노원롯데,,카페,커피 전문점,상계2동,상계동,서울특별시 노원구 상계동 713,서울특별시 노원구 동일로 1414,127.061377944666,37.6552664327901
카페나루,,카페,커피 전문점,발산1동,마곡동,서울특별시 강서구 마곡동 801-1,서울특별시 강서구 공항대로 242,126.834313999484,37.5584713707099
투썸플레이스은평한옥,,카페,커피 전문점,진관동,진관동,서울특별시 은평구 진관동 205-8,서울특별시 은평구 진관길 7,126.939255915838,37.642301898103
한강커피호프,,카페,커피 전문점,묵2동,묵동,서울특별시 중랑구 묵동 239-154,서울특별시 중랑구 동일로163길 9,127.076772866783,37.6118587691267
스톤,,카페,커피 전문점,인수동,수유동,서울특별시 강북구 수유동 400-17,서울특별시 강북구 삼양로88가길 4,127.018101081775,37.6351454856923
에이치에스에프앤비,,카페,커피 전문점,일원본동,일원동,서울특별시 강남구 일원동 717,서울특별시 강남구 일원로 115,127.084442901953,37.4840142577325
시나브로빈스토리,,카페,커피 전문점,우장산동,내발산동,서울특별시 강서구 내발산동 661-26,서울특별시 강서구 공항대로42길 61,126.842851396106,37.5553206509988
라브리,,카페,커피 전문점,신당5동,신당동,서울특별시 중구 신당동 154-47,서울특별시 중구 퇴계로90길 36,127.021743855569,37.5637773663116
텐퍼센트커피,,카페,커피 전문점,역삼1동,역삼동,서울특별시 강남구 역삼동 637-20,서울특별시 강남구 강남대로94길 67,127.032529679606,37.5008197499222
슈퍼커피선릉로점,,카페,커피 전문점,역삼1동,역삼동,서울특별시 강남구 역삼동 704-51,서울특별시 강남구 선릉로93길 26,127.046412298551,37.5048251937045
카페베토벤,,카페,커피 전문점,양재2동,양재동,서울특별시 서초구 양재동 385-12,서울특별시 서초구 논현로1길 59,127.048827999672,37.4704152365275
카페잉거,,카페,커피 전문점,독산3동,독산동,서울특별시 금천구 독산동 159-7,서울특별시 금천구 시흥대로138길 10-10,126.899064305218,37.4723315032054
카쿠,,카페,커피 전문점,성내1동,성내동,서울특별시 강동구 성내동 421-20,서울특별시 강동구 성안로 45,127.130486113293,37.5278833210522
투썸플레이스양재역점,,카페,커피 전문점,양재1동,양재동,서울특별시 서초구 양재동 24,서울특별시 서초구 강남대로 213,127.034933598472,37.4827552071824
커피구름,,카페,기타 비알코올 음료점업,연남동,연남동,서울특별시 마포구 연남동 564-13,서울특별시 마포구 연남로3길 73-6,126.91897366582,37.5593219631063
카페드엣지,,카페,커피 전문점,대치4동,대치동,서울특별시 강남구 대치동 900-42,서울특별시 강남구 선릉로82길 40-14,127.053589835448,37.5024951194427
엠커피,,카페,커피 전문점,공덕동,공덕동,서울특별시 마포구 공덕동 115-13,서울특별시 마포구 만리재로 80,126.958751168183,37.5476145304615
더불어함께숲,,카페,커피 전문점,진관동,진관동,서울특별시 은평구 진관동 296-12,서울특별시 은평구 북한산로 271-3,126.938930866696,37.6547962104534
문카페,,카페,커피 전문점,오금동,오금동,서울특별시 송파구 오금동 71-14,서울특별시 송파구 동남로23길 52,127.134371384934,37.5039797210938
르빗,,카페,커피 전문점,서초3동,서초동,서울특별시 서초구 서초동 1574-13,서울특별시 서초구 서초중앙로 121,127.013603958382,37.4925717632741
원팩토리커피,,카페,커피 전문점,석촌동,석촌동,서울특별시 송파구 석촌동 232-6,서울특별시 송파구 백제고분로34길 15,127.098904295897,37.5010023064054
공차한티역점,,카페,기타 비알코올 음료점업,대치4동,대치동,서울특별시 강남구 대치동 922-24,서울특별시 강남구 선릉로 314,127.052371034439,37.497808864738
에이치소사이어티,,카페,커피 전문점,종로1.2.3.4가동,운니동,서울특별시 종로구 운니동 98-5,서울특별시 종로구 율곡로 88,126.988900631702,37.5768000292984
빽다방왕십리역점,,카페,커피 전문점,왕십리도선동,도선동,서울특별시 성동구 도선동 48,서울특별시 성동구 왕십리로 320-1,127.034168632062,37.5623118458684
유니드마이요거트,,카페,기타 비알코올 음료점업,신사동,신사동,서울특별시 강남구 신사동 523-14,서울특별시 강남구 강남대로162길 27-6,127.020699228066,37.5207706907324
스밍스튜디오,,카페,커피 전문점,성수1가1동,성수동1가,서울특별시 성동구 성수동1가 656-253,서울특별시 성동구 뚝섬로 317,127.046230052032,37.5413614102281
와플레이,,카페,커피 전문점,교남동,홍파동,서울특별시 종로구 홍파동 199,서울특별시 종로구 송월길 99,126.962356657481,37.5707940232932
앤트러사이트커피로스터스,,카페,기타 비알코올 음료점업,연희동,연희동,서울특별시 서대문구 연희동 89-19,서울특별시 서대문구 연희로 135,126.932815454723,37.5696836890509
어반네이처,,카페,커피 전문점,삼성1동,삼성동,서울특별시 강남구 삼성동 159-8,서울특별시 강남구 테헤란로 521,127.060789660534,37.5091843579469
이디야커피군자역점,,카페,커피 전문점,능동,능동,서울특별시 광진구 능동 279-5,서울특별시 광진구 능동로 290,127.078961626501,37.5555785285795
공차잠실엘스점,,카페,기타 비알코올 음료점업,잠실2동,잠실동,서울특별시 송파구 잠실동 19-9,서울특별시 송파구 올림픽로 119,127.08416804752,37.5120801157417
메가엠지씨커피개봉,,카페,커피 전문점,개봉1동,개봉동,서울특별시 구로구 개봉동 126-33,서울특별시 구로구 고척로 126,126.847894024667,37.5019564954884
카페인모아,,카페,커피 전문점,자양3동,자양동,서울특별시 광진구 자양동 227-23,서울특별시 광진구 아차산로 292,127.075270228549,37.5383125673564
와이씨피커피,,카페,커피 전문점,대조동,대조동,서울특별시 은평구 대조동 197-15,서울특별시 은평구 연서로26길 3-6,126.92033125113,37.6173699782513
안녕커피소녀,,카페,커피 전문점,응암2동,응암동,서울특별시 은평구 응암동 397-64,서울특별시 은평구 응암로22길 10-1,126.91914701015,37.5935358703901
카페비토,,카페,커피 전문점,등촌1동,등촌동,서울특별시 강서구 등촌동 628-9,서울특별시 강서구 화곡로 416,126.855411646357,37.5599212215972
커피베이성수세종,,카페,커피 전문점,성수2가3동,성수동2가,서울특별시 성동구 성수동2가 284-62,서울특별시 성동구 성수일로10길 26,127.053136090192,37.5464628689195
육다시구,,카페,기타 비알코올 음료점업,논현1동,논현동,서울특별시 강남구 논현동 6-9,서울특별시 강남구 논현로149길 40,127.025263789444,37.5177358637128
코히루,,카페,커피 전문점,송파1동,송파동,서울특별시 송파구 송파동 48-16,서울특별시 송파구 오금로 148,127.111108352223,37.5104747993474
팔공티대치학원가점,,카페,기타 비알코올 음료점업,대치4동,대치동,서울특별시 강남구 대치동 932-4,서울특별시 강남구 삼성로61길 22,127.058597741423,37.4990840877975
데이롱카페,,카페,커피 전문점,양재2동,양재동,서울특별시 서초구 양재동 377-5,서울특별시 서초구 동산로14길 2,127.046117732162,37.4719612337081
빽다방-마곡역GMG점,,카페,커피 전문점,가양1동,마곡동,서울특별시 강서구 마곡동 773-2,서울특별시 강서구 마곡중앙6로 16,126.828987013432,37.560391911309
홍밀밀,,카페,커피 전문점,명동,명동2가,서울특별시 중구 명동2가 1-1,서울특별시 중구 명동길 74,126.986757791586,37.5636624910965
쥬씨,,카페,기타 비알코올 음료점업,사근동,행당동,서울특별시 성동구 행당동 3-30,서울특별시 성동구 마조로 29,127.041007710171,37.5603582625951
라이크라떼,,카페,커피 전문점,제기동,제기동,서울특별시 동대문구 제기동 1140-5,서울특별시 동대문구 왕산로 117,127.036473100669,37.5784864122149
카페스텔라,,카페,커피 전문점,고덕1동,고덕동,서울특별시 강동구 고덕동 499,서울특별시 강동구 동남로79길 26,127.153721915276,37.5591746016068
할리스커피강남대로논현,,카페,커피 전문점,논현1동,논현동,서울특별시 강남구 논현동 164,서울특별시 강남구 강남대로 520,127.022927815327,37.5086249415716
프롬하츠커피점,,카페,커피 전문점,다산동,신당동,서울특별시 중구 신당동 366-440,서울특별시 중구 다산로 41,127.006996830252,37.5482824202019
팔공티,,카페,커피 전문점,성내3동,성내동,서울특별시 강동구 성내동 439-11,서울특별시 강동구 양재대로87길 11,127.134292842167,37.5254694196786
카페리버스,,카페,커피 전문점,시흥1동,시흥동,서울특별시 금천구 시흥동 894-20,서울특별시 금천구 독산로11길 20,126.90482130523,37.4520032225444
트래버틴현대무역,,카페,커피 전문점,삼성1동,삼성동,서울특별시 강남구 삼성동 159-7,서울특별시 강남구 테헤란로 517,127.05974496335,37.5086083814458
두잉사회적협동조합,,카페,커피 전문점,망우3동,망우동,서울특별시 중랑구 망우동 460-27,서울특별시 중랑구 봉우재로 232,127.098597523443,37.5950968739376
만랩커피묵동점,,카페,커피 전문점,묵1동,묵동,서울특별시 중랑구 묵동 396,서울특별시 중랑구 숙선옹주로 45,127.082718438851,37.6156174250362
컴포즈커피시흥,,카페,커피 전문점,시흥1동,시흥동,서울특별시 금천구 시흥동 883,서울특별시 금천구 시흥대로 232,126.900929275156,37.454598163341
공차홍대입구역점,,카페,기타 비알코올 음료점업,서교동,동교동,서울특별시 마포구 동교동 165-1,서울특별시 마포구 양화로 166,126.924149388428,37.5567382079753
커피에반젤린,,카페,커피 전문점,신월5동,신월동,서울특별시 양천구 신월동 52-4,서울특별시 양천구 화곡로4길 14,126.827479288211,37.5381484816487
땡큐,,카페,커피 전문점,방학1동,방학동,서울특별시 도봉구 방학동 725-52,서울특별시 도봉구 방학로 31-11,127.04900003296,37.6616547277054
메가엠지씨커피영등포역남부점,,카페,커피 전문점,영등포본동,영등포동,서울특별시 영등포구 영등포동 618-268,서울특별시 영등포구 영신로19길 26-1,126.905108318111,37.5136826407974
컴포즈커피먹골,,카페,커피 전문점,묵2동,묵동,서울특별시 중랑구 묵동 238-125,서울특별시 중랑구 동일로163길 8,127.07681427047,37.6121744575448
구움블루스,,카페,커피 전문점,목1동,목동,서울특별시 양천구 목동 405-241,서울특별시 양천구 오목로56길 5,126.874049496,37.5240499500863
야카모즈,,카페,커피 전문점,성산1동,성산동,서울특별시 마포구 성산동 114-12,서울특별시 마포구 월드컵북로 88,126.915443562862,37.5615782227305
당당,,카페,커피 전문점,소공동,서소문동,서울특별시 중구 서소문동 120-12,서울특별시 중구 세종대로11길 30,126.974200379434,37.5623376425675
소격동60,,카페,커피 전문점,삼청동,소격동,서울특별시 종로구 소격동 60-2,서울특별시 종로구 삼청로 54-16,126.980980806093,37.5805883776148
매머드익스프레스양평동,,카페,커피 전문점,양평2동,양평동3가,서울특별시 영등포구 양평동3가 77-42,서울특별시 영등포구 선유로40길 12,126.894231788111,37.5301965231126
웨이크업커피,,카페,커피 전문점,역삼1동,역삼동,서울특별시 강남구 역삼동 635-4,서울특별시 강남구 테헤란로7길 22,127.030721483725,37.5007148214433
더인셀덤,,카페,커피 전문점,장안1동,장안동,서울특별시 동대문구 장안동 398-10,서울특별시 동대문구 한천로14길 49,127.065441912669,37.5669336243603
악어커피,,카페,커피 전문점,가산동,가산동,서울특별시 금천구 가산동 50-3,서울특별시 금천구 벚꽃로 298,126.883859005074,37.4814335948223
퍼스트페이지일상문화협동조합,,카페,커피 전문점,풍납2동,풍납동,서울특별시 송파구 풍납동 505-8,서울특별시 송파구 올림픽로49길 8,127.119571565325,37.5304876073532
한숨,,카페,기타 비알코올 음료점업,신촌동,창천동,서울특별시 서대문구 창천동 2-22,서울특별시 서대문구 연세로12길 32,126.938729737696,37.5589425608573
테이퍼드커피스탠드,,카페,커피 전문점,용강동,도화동,서울특별시 마포구 도화동 173,서울특별시 마포구 마포대로 63-8,126.947804157456,37.5422463884891
흰여울,,카페,커피 전문점,대치4동,대치동,서울특별시 강남구 대치동 890-38,서울특별시 강남구 테헤란로70길 16,127.053283110318,37.5043938900755
스위트바이오그릭데이,,카페,기타 비알코올 음료점업,서교동,서교동,서울특별시 마포구 서교동 486,서울특별시 마포구 홍익로 10,126.923671718771,37.5537514150424
제이오케이컴퍼니커피온리,,카페,"피자, 햄버거, 샌드위치 및 유사 음식점업",잠실6동,신천동,서울특별시 송파구 신천동 8,서울특별시 송파구 올림픽로 265,127.100655016038,37.5134502581858
아우프글렛한남점,,카페,커피 전문점,한남동,한남동,서울특별시 용산구 한남동 683-24,서울특별시 용산구 이태원로54가길 20,127.001399824464,37.5368910396249
체리시,,카페,기타 비알코올 음료점업,송천동,미아동,서울특별시 강북구 미아동 682-11,서울특별시 강북구 삼양로 162,127.021606588076,37.618379305461
빈티지라이언,,카페,커피 전문점,을지로동,산림동,서울특별시 중구 산림동 207-2,서울특별시 중구 을지로 157,126.995438253137,37.5671336037755
프래그먼트서울,,카페,커피 전문점,광희동,쌍림동,서울특별시 중구 쌍림동 182-21,서울특별시 중구 장충단로7길 24,127.005154812168,37.5625574890014
노브,,카페,커피 전문점,개봉1동,개봉동,서울특별시 구로구 개봉동 132-66,서울특별시 구로구 경인로31길 62,126.849269958385,37.499996627534
디저트39,,카페,커피 전문점,서초2동,서초동,서울특별시 서초구 서초동 1327,서울특별시 서초구 서초대로74길 23,127.027078232959,37.4956029203353
할리스커피,,카페,커피 전문점,신촌동,대현동,서울특별시 서대문구 대현동 56-2,서울특별시 서대문구 이화여대길 59,126.945146715104,37.5589820481345
아나이스플라워카페,,카페,커피 전문점,성내3동,성내동,서울특별시 강동구 성내동 199-22,서울특별시 강동구 천호대로174길 20,127.134510387254,37.5340580917642
"정,카페",,카페,기타 비알코올 음료점업,정릉2동,정릉동,서울특별시 성북구 정릉동 192-255,서울특별시 성북구 서경로13길 1,127.015266674553,37.6086674507105
피에스타7커피,,카페,커피 전문점,사당1동,사당동,서울특별시 동작구 사당동 1031-39,서울특별시 동작구 동작대로 39,126.981489828984,37.479945811487
카페라루즈,,카페,커피 전문점,화곡4동,화곡동,서울특별시 강서구 화곡동 504-57,서울특별시 강서구 등촌로13길 40,126.861044968084,37.5355936896117
인커피,,카페,"피자, 햄버거, 샌드위치 및 유사 음식점업",한강로동,한강로2가,서울특별시 용산구 한강로2가 93-5,서울특별시 용산구 한강대로48길 3,126.970884561478,37.5318354838968
레인바우,,카페,커피 전문점,암사1동,암사동,서울특별시 강동구 암사동 463-31,서울특별시 강동구 고덕로10길 26,127.129780566447,37.5535491964013
빈웍스,,카페,커피 전문점,가산동,가산동,서울특별시 금천구 가산동 371-106,서울특별시 금천구 가산디지털1로 181,126.880376783471,37.481418667301
그로토,,카페,커피 전문점,도화동,도화동,서울특별시 마포구 도화동 184-22,서울특별시 마포구 새창로4길 9,126.95178398956,37.5416780859882
헤픈커피,,카페,커피 전문점,이문1동,이문동,서울특별시 동대문구 이문동 306-11,서울특별시 동대문구 휘경로 26-7,127.062351925064,37.594895585799
메가엠지씨커피하월곡동점,,카페,커피 전문점,월곡1동,하월곡동,서울특별시 성북구 하월곡동 90-455,서울특별시 성북구 오패산로3길 3,127.036827843133,37.6036734288137
심플라운지,,카페,커피 전문점,화곡3동,화곡동,서울특별시 강서구 화곡동 1041-34,서울특별시 강서구 화곡로13나길 3,126.833338361762,37.5419187754767
부엉이COFFEE,,카페,커피 전문점,삼전동,삼전동,서울특별시 송파구 삼전동 60-13,서울특별시 송파구 백제고분로28길 12,127.091834441556,37.5020384470959
단발소녀,,카페,커피 전문점,응암1동,응암동,서울특별시 은평구 응암동 117-10,서울특별시 은평구 응암로 285,126.919705916221,37.5971721496035
카페오늘의기분,,카페,커피 전문점,사직동,신문로1가,서울특별시 종로구 신문로1가 238,서울특별시 종로구 새문안로3길 12,126.972922658527,37.5713099127305
엘피스,,카페,커피 전문점,명일1동,명일동,서울특별시 강동구 명일동 329-1,서울특별시 강동구 구천면로 442,127.147405769151,37.5492716228768
컴플리트커피,,카페,커피 전문점,휘경1동,휘경동,서울특별시 동대문구 휘경동 122-11,서울특별시 동대문구 휘경로 69,127.067434787713,37.5941159069086
메가엠지씨커피창동대우점,,카페,커피 전문점,창2동,창동,서울특별시 도봉구 창동 607-46,서울특별시 도봉구 덕릉로63가길 17,127.039373494233,37.6434839812424
감성커피,,카페,커피 전문점,신도림동,신도림동,서울특별시 구로구 신도림동 337,서울특별시 구로구 경인로 661,126.886965798897,37.5090348833153
아이에스팩토리아워헤르츠,,카페,커피 전문점,서초1동,서초동,서울특별시 서초구 서초동 1667-15,서울특별시 서초구 서초대로58길 36,127.017871359157,37.4931209188521
코지8,,카페,커피 전문점,양재1동,우면동,서울특별시 서초구 우면동 721,서울특별시 서초구 태봉로 68,127.025324863392,37.4643037429183
컴포즈커피마곡퀸즈파크나인점,,카페,커피 전문점,가양1동,마곡동,서울특별시 강서구 마곡동 797-1,서울특별시 강서구 공항대로 247,126.834809772822,37.5593412549157
디드앤더크,,카페,커피 전문점,오류2동,오류동,서울특별시 구로구 오류동 205-5,서울특별시 구로구 서해안로 2261-3,126.836743595674,37.4895029529848
설빙구로지밸리점,,카페,기타 비알코올 음료점업,구로3동,구로동,서울특별시 구로구 구로동 188-25,서울특별시 구로구 디지털로 300,126.89652780139,37.4849135072657
오브,,카페,커피 전문점,양평2동,양평동5가,서울특별시 영등포구 양평동5가 120-2,서울특별시 영등포구 양평로22길 31,126.895654231012,37.5403825733276
아그작,,카페,커피 전문점,석촌동,석촌동,서울특별시 송파구 석촌동 272-23,서울특별시 송파구 가락로15길 1,127.106525544959,37.5011322805101
블랙마켓,,카페,커피 전문점,이태원1동,이태원동,서울특별시 용산구 이태원동 137-61,서울특별시 용산구 우사단로10길 21,126.996695813424,37.5332830189486
안단티노,,카페,커피 전문점,망우본동,망우동,서울특별시 중랑구 망우동 465-3,서울특별시 중랑구 망우로66길 49,127.099623854468,37.5973212792327
양재동커피집,,카페,커피 전문점,양재1동,양재동,서울특별시 서초구 양재동 96-16,서울특별시 서초구 양재천로 103-18,127.039438019804,37.4771242554855
리베라,,카페,커피 전문점,면목7동,면목동,서울특별시 중랑구 면목동 633-1,서울특별시 중랑구 면목로 303,127.087113282891,37.5794745771158
사라다방,,카페,김밥 및 기타 간이 음식점업,회기동,회기동,서울특별시 동대문구 회기동 45-78,서울특별시 동대문구 회기로 149-3,127.053233780311,37.5915069584825
카페홀린,,카페,커피 전문점,개봉2동,개봉동,서울특별시 구로구 개봉동 403-138,서울특별시 구로구 개봉로 50,126.856296752048,37.4901173609851
공차길음뉴타운점,,카페,커피 전문점,길음1동,길음동,서울특별시 성북구 길음동 1284,서울특별시 성북구 길음로 33,127.022075690652,37.6050478343417
소피스티케이트,,카페,커피 전문점,고덕2동,고덕동,서울특별시 강동구 고덕동 210-1,서울특별시 강동구 고덕로 399,127.169655642763,37.5573955193253
홍콩다방오투,,카페,커피 전문점,여의동,여의도동,서울특별시 영등포구 여의도동 23-6,서울특별시 영등포구 의사당대로 83,126.923429755471,37.523357078957
제주시성수동,,카페,커피 전문점,성수2가1동,성수동2가,서울특별시 성동구 성수동2가 328-15,서울특별시 성동구 뚝섬로9길 20,127.056217491588,37.539918880818
블루커피,,카페,커피 전문점,사당1동,사당동,서울특별시 동작구 사당동 1037-9,서울특별시 동작구 사당로26길 130-6,126.977514681649,37.4779381676181
프라이데이무브먼트,,카페,커피 전문점,성수1가2동,성수동1가,서울특별시 성동구 성수동1가 656-1766,서울특별시 성동구 왕십리로14길 7,127.045017779878,37.5494610561876
데뷰,,카페,커피 전문점,양재2동,원지동,서울특별시 서초구 원지동 419-17,서울특별시 서초구 원터2길 9,127.055752804396,37.4438623793927
해례커피,,카페,커피 전문점,응암1동,응암동,서울특별시 은평구 응암동 104-1,서울특별시 은평구 응암로34길 10,126.921832252325,37.5981376779265
님부스,,카페,커피 전문점,이태원1동,이태원동,서울특별시 용산구 이태원동 74-63,서울특별시 용산구 녹사평대로26가길 19,126.992631395969,37.5326266950959
빌리지,,카페,기타 비알코올 음료점업,한남동,한남동,서울특별시 용산구 한남동 790-8,서울특별시 용산구 한남대로42길 23,127.002843087891,37.5432195762322
모라치커피,,카페,커피 전문점,방배본동,방배동,서울특별시 서초구 방배동 796-27,서울특별시 서초구 방배로 226,126.990433705522,37.4933581761687
커피블루,,카페,커피 전문점,성내3동,성내동,서울특별시 강동구 성내동 419-13,서울특별시 강동구 풍성로54길 12-11,127.132771159542,37.5288912858554
유연,,카페,커피 전문점,오금동,오금동,서울특별시 송파구 오금동 615,서울특별시 송파구 양재대로72길 5,127.127504455617,37.5099482848172
후키커피,,카페,커피 전문점,성내1동,성내동,서울특별시 강동구 성내동 467,서울특별시 강동구 성내로14길 45,127.126312147587,37.5258701903138
카페리빈,,카페,커피 전문점,신대방1동,신대방동,서울특별시 동작구 신대방동 604-5,서울특별시 동작구 신대방길 74,126.910001245337,37.4891293420207
백곰커피,,카페,커피 전문점,인수동,수유동,서울특별시 강북구 수유동 45-63,서울특별시 강북구 노해로3길 17,127.021976465714,37.6359705846902
에슬로우도산대로점,,카페,기타 비알코올 음료점업,논현2동,논현동,서울특별시 강남구 논현동 59-6,서울특별시 강남구 도산대로30길 4,127.02912118174,37.5194886447929
카페드림,,카페,커피 전문점,응암1동,응암동,서울특별시 은평구 응암동 86-14,서울특별시 은평구 은평로 145,126.92371677182,37.6009570898618
슬로카페달팽이,,카페,커피 전문점,정릉3동,정릉동,서울특별시 성북구 정릉동 345,서울특별시 성북구 보국문로11길 28-20,127.008450338802,37.6093762571028
펄프커피,,카페,커피 전문점,가산동,가산동,서울특별시 금천구 가산동 550-21,서울특별시 금천구 디지털로 121,126.880082646719,37.4761267339206
에그스팟,,카페,커피 전문점,역삼2동,역삼동,서울특별시 강남구 역삼동 722-2,서울특별시 강남구 테헤란로38길 40,127.042763748304,37.5000290994705
레오쥬스,,카페,기타 비알코올 음료점업,당산2동,당산동6가,서울특별시 영등포구 당산동6가 235-1,서울특별시 영등포구 당산로48길 2,126.902558618097,37.5340765906243
커피나무어린이대공원역점,,카페,커피 전문점,군자동,군자동,서울특별시 광진구 군자동 368-1,서울특별시 광진구 광나루로19길 38,127.073210177707,37.5493342975485
비엔나커피하우스건대스타시티점,,카페,커피 전문점,자양3동,자양동,서울특별시 광진구 자양동 227-342,서울특별시 광진구 능동로 92,127.07119956705,37.538992451652
카페아이엠티지,,카페,커피 전문점,가리봉동,가리봉동,서울특별시 구로구 가리봉동 137-24,서울특별시 구로구 디지털로26길 38,126.895302205638,37.4798381658842
팬시,,카페,커피 전문점,중곡3동,중곡동,서울특별시 광진구 중곡동 236-7,서울특별시 광진구 동일로 411,127.077866324994,37.5673106490631
힐링빈스,,카페,커피 전문점,신월2동,신월동,서울특별시 양천구 신월동 512-1,서울특별시 양천구 월정로 8,126.844253769723,37.5209328611961
뜨아아아커피집,,카페,커피 전문점,행당1동,행당동,서울특별시 성동구 행당동 264,서울특별시 성동구 고산자로12길 1-1,127.03503171417,37.5603366016511
우일티에스에이미스참인,,카페,커피 전문점,우장산동,화곡동,서울특별시 강서구 화곡동 산60-1,서울특별시 강서구 우장산로10길 112,126.842424921477,37.5492344974428
혼디,,카페,커피 전문점,방이1동,방이동,서울특별시 송파구 방이동 224-4,서울특별시 송파구 오금로31가길 11-1,127.12248308554,37.506982642985
달.달커피,,카페,커피 전문점,삼선동,삼선동4가,서울특별시 성북구 삼선동4가 341-1,서울특별시 성북구 삼선교로23길 8,127.014560214769,37.5901001473421
카페커먼띵스,,카페,커피 전문점,서초1동,서초동,서울특별시 서초구 서초동 1432-24,서울특별시 서초구 남부순환로339길 25,127.022228806647,37.4841645233432
컴포즈커피화곡남부,,카페,커피 전문점,화곡4동,화곡동,서울특별시 강서구 화곡동 829-7,서울특별시 강서구 곰달래로53길 41,126.858871306991,37.5334462570325
무화과,,카페,커피 전문점,방화3동,방화동,서울특별시 강서구 방화동 813-9,서울특별시 강서구 금낭화로 290,126.81162512216,37.5760224557604
카페스내킹,,카페,커피 전문점,신림동,신림동,서울특별시 관악구 신림동 1443-28,서울특별시 관악구 봉천로 216,126.925508781904,37.4896047924359
빽다방까치산역점,,카페,커피 전문점,화곡8동,화곡동,서울특별시 강서구 화곡동 341-96,서울특별시 강서구 강서로 48,126.846716251306,37.5321928669701
진실롱,,카페,기타 비알코올 음료점업,여의동,여의도동,서울특별시 영등포구 여의도동 12-3,서울특별시 영등포구 은행로 54,126.924525117046,37.5298005084924
커피마스,,카페,커피 전문점,목2동,목동,서울특별시 양천구 목동 547-14,서울특별시 양천구 목동중앙본로 93,126.870366140242,37.5439907880941
라보아르,,카페,커피 전문점,연남동,연남동,서울특별시 마포구 연남동 223-9,서울특별시 마포구 동교로51안길 24,126.92410527347,37.5653156898788
빽다방방화,,카페,커피 전문점,방화1동,방화동,서울특별시 강서구 방화동 483-5,서울특별시 강서구 금낭화로 91-2,126.811063028353,37.573638084054
아뜰리에렌토,,카페,기타 비알코올 음료점업,동선동,동선동5가,서울특별시 성북구 동선동5가 131,서울특별시 성북구 동소문로23길 62-1,127.016180465868,37.5960425081649
빽다방용마산역점,,카페,커피 전문점,면목4동,면목동,서울특별시 중랑구 면목동 372-21,서울특별시 중랑구 면목로27길 4,127.085116844013,37.5751611257478
리스펙트,,카페,커피 전문점,묵1동,묵동,서울특별시 중랑구 묵동 175-5,서울특별시 중랑구 공릉로 21,127.077725515838,37.6126771555342
카페소미,,카페,기타 비알코올 음료점업,등촌2동,등촌동,서울특별시 강서구 등촌동 509-9,서울특별시 강서구 등촌로51길 10,126.8628099845,37.5490091079655
커피72,,카페,커피 전문점,방배1동,방배동,서울특별시 서초구 방배동 924-14,서울특별시 서초구 방배로 113,126.995600396373,37.4841664104917
더벤티마곡역점,,카페,커피 전문점,공항동,마곡동,서울특별시 강서구 마곡동 798-4,서울특별시 강서구 마곡서로 56,126.823904406942,37.5589898421533
88파운드,,카페,커피 전문점,연남동,연남동,서울특별시 마포구 연남동 487-424,서울특별시 마포구 연남로13길 9,126.916840717419,37.5667089408069
방배노인종합복지관늘봄카페,,카페,커피 전문점,방배3동,방배동,서울특별시 서초구 방배동 478-13,서울특별시 서초구 남부순환로287길 17-4,126.98742676511,37.4765187683721
선데이모닝,,카페,커피 전문점,가락본동,가락동,서울특별시 송파구 가락동 49-11,서울특별시 송파구 오금로36길 69-10,127.121345873771,37.4978554545611
쥬씨역촌역점,,카페,기타 비알코올 음료점업,역촌동,역촌동,서울특별시 은평구 역촌동 16-36,서울특별시 은평구 서오릉로 71,126.921930913547,37.606995722722
디파인드엠,,카페,커피 전문점,잠실본동,잠실동,서울특별시 송파구 잠실동 193-3,서울특별시 송파구 백제고분로7길 16-20,127.080713958553,37.5096474617755
쉐어드닷크리에이티브,,카페,커피 전문점,서교동,서교동,서울특별시 마포구 서교동 332-30,서울특별시 마포구 와우산로29바길 11-4,126.926145950092,37.5556300856577
커피랑도서관고덕역점,,독서실/스터디 카페,커피 전문점,명일2동,명일동,서울특별시 강동구 명일동 47-16,서울특별시 강동구 동남로75길 13-25,127.15545476462,37.5530598370103
설빙,,카페,기타 비알코올 음료점업,신대방2동,신대방동,서울특별시 동작구 신대방동 708,서울특별시 동작구 보라매로3길 29,126.924977008657,37.4912038214422
카페라제스,,카페,커피 전문점,왕십리도선동,하왕십리동,서울특별시 성동구 하왕십리동 1070,서울특별시 성동구 왕십리로 410,127.024062147888,37.5665447401941
스멜로우,,카페,커피 전문점,역삼1동,역삼동,서울특별시 강남구 역삼동 827-32,서울특별시 강남구 테헤란로6길 32,127.031138068095,37.496483278806
101커피컨테이너,,카페,커피 전문점,서초3동,서초동,서울특별시 서초구 서초동 1720-7,서울특별시 서초구 법원로3길 26,127.007694336053,37.4930719156461
어블리,,카페,커피 전문점,군자동,군자동,서울특별시 광진구 군자동 467-1,서울특별시 광진구 천호대로 516,127.075668187497,37.5583190135317
카페보니또영등포,,카페,커피 전문점,신길7동,신길동,서울특별시 영등포구 신길동 861,서울특별시 영등포구 여의대방로 203,126.921969108405,37.5053588972244
커피스마일,,카페,커피 전문점,중계본동,중계동,서울특별시 노원구 중계동 89-3,서울특별시 노원구 중계로14라길 15-3,127.082785531268,37.6497943459816
설빙서울,,카페,커피 전문점,대치4동,대치동,서울특별시 강남구 대치동 935-27,서울특별시 강남구 선릉로62길 33,127.055049016534,37.4979925068637
트라이더원,,카페,커피 전문점,문정2동,문정동,서울특별시 송파구 문정동 642-3,서울특별시 송파구 법원로 128,127.12046854644,37.4868379457149
하이오커피상계역점,,카페,커피 전문점,중계4동,중계동,서울특별시 노원구 중계동 142-47,서울특별시 노원구 한글비석로20길 23,127.073815822314,37.6603024134035
이원,,카페,기타 비알코올 음료점업,종로1.2.3.4가동,청진동,서울특별시 종로구 청진동 2-2,서울특별시 종로구 삼봉로 60,126.980403533438,37.5722758027088
커피리드,,카페,커피 전문점,동화동,신당동,서울특별시 중구 신당동 47-14,서울특별시 중구 다산로36길 69,127.018497103318,37.5610472838405
아지트,,카페,커피 전문점,신내2동,신내동,서울특별시 중랑구 신내동 537-16,서울특별시 중랑구 신내로7가길 10-15,127.095295490586,37.6031359584053
뉴욕핫도그앤커피,,카페,"피자, 햄버거, 샌드위치 및 유사 음식점업",염리동,염리동,서울특별시 마포구 염리동 147-16,서울특별시 마포구 숭문길 12,126.945587792305,37.5469570901568
제주스플러스제주스전경련회관점,,카페,커피 전문점,여의동,여의도동,서울특별시 영등포구 여의도동 28-1,서울특별시 영등포구 여의대로 24,126.919894565455,37.5221714645792
이디야쌈지공원점,,카페,커피 전문점,독산4동,독산동,서울특별시 금천구 독산동 179-35,서울특별시 금천구 독산로 276,126.903273003144,37.4713434466071
두더지손,,카페,커피 전문점,당산2동,당산동6가,서울특별시 영등포구 당산동6가 110-42,서울특별시 영등포구 당산로52길 31-1,126.905149851909,37.5332897067504
우리동네일등커피집,,카페,경영 컨설팅업,반포1동,반포동,서울특별시 서초구 반포동 734-35,서울특별시 서초구 사평대로55길 45,127.021888430568,37.5059312001722
스윗레시피,,카페,커피 전문점,상계2동,상계동,서울특별시 노원구 상계동 591-25,서울특별시 노원구 상계로1길 38,127.061675959595,37.6577015949653
오슬로우커피에이스하이테크시티점,,카페,커피 전문점,문래동,문래동3가,서울특별시 영등포구 문래동3가 55-20,서울특별시 영등포구 경인로 775,126.897525378821,37.5147384071488
유별,,카페,커피 전문점,개포4동,개포동,서울특별시 강남구 개포동 1184-3,서울특별시 강남구 논현로10길 30,127.050918226844,37.4749823997304
펠리스커피,,카페,커피 전문점,신정7동,신정동,서울특별시 양천구 신정동 323-17,서울특별시 양천구 목동동로 55,126.861384172439,37.5155128121864
체리커피,,카페,커피 전문점,능동,능동,서울특별시 광진구 능동 282-1,서울특별시 광진구 능동로 284,127.078706661297,37.5551440353372
컴포넌트커피,,카페,커피 전문점,연남동,연남동,서울특별시 마포구 연남동 229-64,서울특별시 마포구 동교로 253,126.92438219912,37.5625880687383
매머드커피,,카페,커피 전문점,흑석동,흑석동,서울특별시 동작구 흑석동 184-27,서울특별시 동작구 흑석로 101,126.960572075082,37.507741270769
옐로우문,,카페,커피 전문점,청담동,청담동,서울특별시 강남구 청담동 7-19,서울특별시 강남구 삼성로 767,127.047593893712,37.5230990947575
블랙다운,,카페,커피 전문점,우이동,우이동,서울특별시 강북구 우이동 72-83,서울특별시 강북구 삼양로 528-1,127.013562748775,37.6501909144011
해든카페,,카페,커피 전문점,문정2동,문정동,서울특별시 송파구 문정동 645-2,서울특별시 송파구 법원로9길 26,127.116611514704,37.4840519163494
쉼표,,카페,기타 비알코올 음료점업,사당2동,사당동,서울특별시 동작구 사당동 144-18,서울특별시 동작구 사당로 295,126.980266907736,37.4850712713669
숏컷익스프레스,,카페,커피 전문점,종로5.6가동,종로6가,서울특별시 종로구 종로6가 298-2,서울특별시 종로구 종로 266,127.007310641055,37.5706940376659
구동커피,,카페,커피 전문점,대학동,신림동,서울특별시 관악구 신림동 1536-11,서울특별시 관악구 신림로17길 42,126.936183969803,37.4688330557441
빈웍스가산,,카페,커피 전문점,가산동,가산동,서울특별시 금천구 가산동 429-1,서울특별시 금천구 가산디지털2로 108,126.880644262997,37.4778890981062
오프니,,카페,커피 전문점,도곡1동,도곡동,서울특별시 강남구 도곡동 950-3,서울특별시 강남구 남부순환로359길 37,127.035330341549,37.487074513499
커피운,,카페,커피 전문점,신월6동,신월동,서울특별시 양천구 신월동 601-17,서울특별시 양천구 남부순환로79길 47-1,126.844102677877,37.5189941509642
볼드,,카페,커피 전문점,한강로동,한강로3가,서울특별시 용산구 한강로3가 40-132,서울특별시 용산구 한강대로21길 17-7,126.963852434805,37.5265389163096
구움소리,,카페,커피 전문점,상암동,상암동,서울특별시 마포구 상암동 36-41,서울특별시 마포구 월드컵북로44길 57-12,126.894006656416,37.5768320899625
히어,,카페,커피 전문점,청구동,신당동,서울특별시 중구 신당동 335-11,서울특별시 중구 다산로20길 32,127.013721041636,37.5567185069598
빽다방상도e편한점,,카페,커피 전문점,상도2동,상도동,서울특별시 동작구 상도동 903,서울특별시 동작구 만양로 6,126.946937643856,37.5048813165982
원투제작소,,카페,커피 전문점,서교동,서교동,서울특별시 마포구 서교동 382-13,서울특별시 마포구 동교로12길 41,126.912891744286,37.5525804147728
블랙드롭커피,,카페,커피 전문점,석촌동,석촌동,서울특별시 송파구 석촌동 2-7,서울특별시 송파구 삼학사로 90,127.09741754333,37.5051898915506
참좋다,,카페,커피 전문점,성북동,성북동,서울특별시 성북구 성북동 173-17,서울특별시 성북구 성북로10가길 8-4,127.003242707966,37.5922216721664
컴포즈커피목동사랑,,카페,커피 전문점,목4동,목동,서울특별시 양천구 목동 723-11,서울특별시 양천구 목동중앙남로 61,126.865867309046,37.5391811792183
카페차이길음뉴타운점,,카페,커피 전문점,길음1동,길음동,서울특별시 성북구 길음동 1284,서울특별시 성북구 길음로 33,127.022075690652,37.6050478343417
엘콕,,카페,커피 전문점,회기동,회기동,서울특별시 동대문구 회기동 348-5,서울특별시 동대문구 회기로25길 26,127.05579796728,37.5911040086723
이디야강서점,,카페,커피 전문점,화곡6동,화곡동,서울특별시 강서구 화곡동 981-1,서울특별시 강서구 화곡로 292,126.84870255667,37.5501788902927
진커피,,카페,커피 전문점,노량진2동,노량진동,서울특별시 동작구 노량진동 39-8,서울특별시 동작구 노량진로12길 13,126.938401969092,37.5126169902151
솔비커피숍,,카페,커피 전문점,방학2동,방학동,서울특별시 도봉구 방학동 662-35,서울특별시 도봉구 도당로 79,127.035810187936,37.6649265148761
제이원플러스,,카페,커피 전문점,반포1동,반포동,서울특별시 서초구 반포동 737-9,서울특별시 서초구 강남대로 491,127.023255675466,37.5060326190975
마이웨이,,카페,커피 전문점,여의동,여의도동,서울특별시 영등포구 여의도동 44-35,서울특별시 영등포구 여의대방로 379,126.930911448268,37.5191270597351
매머드커피장교빌딩점,,카페,커피 전문점,명동,장교동,서울특별시 중구 장교동 1,서울특별시 중구 삼일대로 363,126.987038796717,37.5671519360146
카페블루,,카페,커피 전문점,역삼1동,역삼동,서울특별시 강남구 역삼동 646,서울특별시 강남구 테헤란로 137,127.033983204835,37.5003630966368
테이크커피우면점,,카페,커피 전문점,양재1동,우면동,서울특별시 서초구 우면동 686,서울특별시 서초구 성촌1길 26,127.021354143234,37.4653972494454
달키스,,카페,커피 전문점,묵1동,묵동,서울특별시 중랑구 묵동 68-10,서울특별시 중랑구 공릉로12나길 28,127.082244991349,37.6163525976585
에이치엔씨,,카페,커피 전문점,압구정동,신사동,서울특별시 강남구 신사동 587-16,서울특별시 강남구 도산대로 209,127.029368270558,37.5204998539416
카페아이엠씨,,카페,커피 전문점,방이2동,방이동,서울특별시 송파구 방이동 45-4,서울특별시 송파구 위례성대로 28,127.115296549521,37.5159666588155
매머드익스프레스외대점,,카페,커피 전문점,이문1동,이문동,서울특별시 동대문구 이문동 288-25,서울특별시 동대문구 휘경로 5,127.060770803981,37.5963607244818
카페나루,,카페,커피 전문점,당산2동,당산동,서울특별시 영등포구 당산동 1,서울특별시 영등포구 선유로 343,126.901803266557,37.5423771561163
팔공티,,카페,기타 비알코올 음료점업,대치4동,대치동,서울특별시 강남구 대치동 936,서울특별시 강남구 선릉로 312,127.052623341559,37.4975315607658
오오티,,카페,커피 전문점,석관동,석관동,서울특별시 성북구 석관동 340-156,서울특별시 성북구 화랑로32가길 9,127.055931706529,37.6091979988333
카페수양사,,카페,커피 전문점,불광2동,불광동,서울특별시 은평구 불광동 155-20,서울특별시 은평구 연서로34길 37-3,126.929877866857,37.622268441438
크로플덕오리아가씨금천구점,,카페,커피 전문점,시흥5동,시흥동,서울특별시 금천구 시흥동 835-7,서울특별시 금천구 독산로16길 24,126.907401828154,37.4525316981941
에이미스,,카페,커피 전문점,구의3동,구의동,서울특별시 광진구 구의동 587,서울특별시 광진구 강변역로 2,127.089941933182,37.5377417469435
토브,,카페,커피 전문점,독산1동,독산동,서울특별시 금천구 독산동 1150,서울특별시 금천구 벚꽃로 30,126.893620111621,37.4581882281302
숨,,카페,커피 전문점,가양3동,가양동,서울특별시 강서구 가양동 448-11,서울특별시 강서구 화곡로72길 62,126.858799814366,37.5604045379398
사랑채한방찻집,,카페,기타 비알코올 음료점업,대조동,대조동,서울특별시 은평구 대조동 14-9,서울특별시 은평구 통일로 727,126.929628242877,37.6104446579956
빽다방고속터미널역점,,카페,커피 전문점,반포3동,잠원동,서울특별시 서초구 잠원동 75-19,서울특별시 서초구 신반포로 177,127.003393697161,37.5060919747862
스페셜커피넘버원,,카페,커피 전문점,월곡2동,하월곡동,서울특별시 성북구 하월곡동 27-67,서울특별시 성북구 화랑로11길 23-10,127.041280057502,37.6035655142934
카페아이엠티,,카페,커피 전문점,가회동,계동,서울특별시 종로구 계동 143-1,서울특별시 종로구 계동길 19,126.986548720251,37.5782575670759
카페진,,카페,기타 비알코올 음료점업,동선동,동선동2가,서울특별시 성북구 동선동2가 21,서울특별시 성북구 보문로30라길 22,127.018561240421,37.5898000989816
인디에어,,카페,커피 전문점,불광1동,불광동,서울특별시 은평구 불광동 603-1,서울특별시 은평구 불광로2길 2,126.931917613957,37.6119250721611
무슈부부커피스탠드,,카페,커피 전문점,망원2동,망원동,서울특별시 마포구 망원동 453-12,서울특별시 마포구 망원로 13,126.898319383457,37.5561215735491
디자인루트컴퍼니,,카페,커피 전문점,중앙동,봉천동,서울특별시 관악구 봉천동 873-27,서울특별시 관악구 봉천로 455,126.950573989131,37.4826487279286
사일삼프로젝트,,카페,커피 전문점,역삼1동,역삼동,서울특별시 강남구 역삼동 640-9,서울특별시 강남구 논현로97길 19-11,127.034455252346,37.5023492772935
랩쳐,,카페,커피 전문점,한강로동,한강로3가,서울특별시 용산구 한강로3가 65-425,서울특별시 용산구 서빙고로24길 4,126.968662633334,37.5239319431997
카페안나,,카페,커피 전문점,가산동,가산동,서울특별시 금천구 가산동 481-4,서울특별시 금천구 가산디지털1로 219,126.878974143734,37.4844869447976
공차숭례문점,,카페,커피 전문점,회현동,남대문로5가,서울특별시 중구 남대문로5가 17-3,서울특별시 중구 세종대로 22,126.974275385628,37.5585178758882
서궁,,카페,기타 비알코올 음료점업,사직동,신문로2가,서울특별시 종로구 신문로2가 25,서울특별시 종로구 새문안로 35-2,126.969076647624,37.5686363404432
엔코바,,카페,커피 전문점,가산동,가산동,서울특별시 금천구 가산동 371-17,서울특별시 금천구 가산디지털1로 131,126.881957301391,37.4770275147561
메가엠지씨커피은평,,카페,커피 전문점,역촌동,역촌동,서울특별시 은평구 역촌동 51-79,서울특별시 은평구 갈현로 88,126.910812945154,37.6059565604237
라온커피,,카페,커피 전문점,문정2동,문정동,서울특별시 송파구 문정동 644,서울특별시 송파구 법원로11길 11,127.11842366968,37.484759270549
고요베이크샵,,카페,커피 전문점,화곡8동,화곡동,서울특별시 강서구 화곡동 342-7,서울특별시 강서구 강서로12길 32,126.848690731592,37.5318156775763
앤틀러스,,카페,커피 전문점,독산1동,독산동,서울특별시 금천구 독산동 1142,서울특별시 금천구 범안로17길 9,126.894112195484,37.4669870867896
카페더미,,카페,커피 전문점,홍제3동,홍제동,서울특별시 서대문구 홍제동 279-45,서울특별시 서대문구 간호대로1길 27,126.948291933854,37.59529489435
애프터커피aftercoffee,,카페,커피 전문점,방화1동,방화동,서울특별시 강서구 방화동 452-2,서울특별시 강서구 방화대로45길 70,126.81248834134,37.5744183044795
쥬씨,,카페,커피 전문점,명동,을지로2가,서울특별시 중구 을지로2가 149-10,서울특별시 중구 을지로 88,126.98684873314,37.5661411379348
트랙26,,카페,커피 전문점,망원2동,망원동,서울특별시 마포구 망원동 466-1,서울특별시 마포구 방울내로9안길 71,126.899560747285,37.5602148468525
위두커피,,카페,커피 전문점,송파1동,송파동,서울특별시 송파구 송파동 86-15,서울특별시 송파구 백제고분로42길 6-17,127.108909714927,37.5051239631229
쥬스식스뚝섬역점,,카페,기타 비알코올 음료점업,성수1가2동,성수동1가,서울특별시 성동구 성수동1가 14-18,서울특별시 성동구 아차산로 49,127.050019994015,37.5467802389107
오페라빈에스프레소,,카페,커피 전문점,서초1동,서초동,서울특별시 서초구 서초동 1442-16,서울특별시 서초구 남부순환로339길 47-1,127.021676721852,37.4848807984521
수수원,,카페,커피 전문점,신수동,신수동,서울특별시 마포구 신수동 85-28,서울특별시 마포구 광성로6길 54,126.939658735901,37.547696911509
자몽밀크티,,카페,커피 전문점,혜화동,명륜3가,서울특별시 종로구 명륜3가 1-27,서울특별시 종로구 명륜길 45-5,126.994419366671,37.5890292335535
마피아백다방,,카페,커피 전문점,신당동,신당동,서울특별시 중구 신당동 193-2,서울특별시 중구 다산로 293,127.014972083703,37.569154356118
컴포즈커피은평,,카페,커피 전문점,진관동,진관동,서울특별시 은평구 진관동 70,서울특별시 은평구 진관2로 15-46,126.919072137133,37.6386136991317
스타더스트,,카페,커피 전문점,사직동,당주동,서울특별시 종로구 당주동 170-1,서울특별시 종로구 새문안로5길 5-3,126.974581649188,37.5708557938084
오르다빛,,카페,커피 전문점,장안2동,장안동,서울특별시 동대문구 장안동 326-13,서울특별시 동대문구 답십리로69길 71,127.073961066209,37.5755336745279
더착한커피,,카페,커피 전문점,양평1동,양평동3가,서울특별시 영등포구 양평동3가 16,서울특별시 영등포구 양산로 43,126.887928030281,37.5257492629185
뉴욕택시디저트,,카페,커피 전문점,낙성대동,봉천동,서울특별시 관악구 봉천동 1664-16,서울특별시 관악구 남부순환로 1870,126.957280630761,37.4792750984586
쿡희희,,카페,커피 전문점,고덕2동,고덕동,서울특별시 강동구 고덕동 194-7,서울특별시 강동구 상일로15길 34-30,127.170413944071,37.5584190423816
빽다방보광점,,카페,커피 전문점,보광동,보광동,서울특별시 용산구 보광동 231-42,서울특별시 용산구 보광로 47,126.998823238017,37.5281831201475
마닐다과,,카페,커피 전문점,망원1동,망원동,서울특별시 마포구 망원동 57-27,서울특별시 마포구 동교로9길 76,126.908504820061,37.556946016645
킴스커피스튜디오,,카페,경영 컨설팅업,공항동,공항동,서울특별시 강서구 공항동 1336-6,서울특별시 강서구 남부순환로11길 25,126.814873153026,37.5546556767257
메머드익스프레스서울역이,,카페,커피 전문점,회현동,남대문로5가,서울특별시 중구 남대문로5가 163,서울특별시 중구 세종대로4길 25,126.975303911466,37.5577969626967
카페아에,,카페,커피 전문점,교남동,평동,서울특별시 종로구 평동 233,서울특별시 종로구 경교장길 35,126.965101477685,37.5687727570834
공백,,카페,커피 전문점,자양3동,자양동,서울특별시 광진구 자양동 474-14,서울특별시 광진구 자양번영로3길 37,127.073039509173,37.5320417720221
프롬하츠커피송파배명점,,카페,커피 전문점,석촌동,석촌동,서울특별시 송파구 석촌동 217-1,서울특별시 송파구 삼학사로 32,127.096992876572,37.5000686298931
봄희,,카페,커피 전문점,중곡3동,중곡동,서울특별시 광진구 중곡동 198-35,서울특별시 광진구 면목로16길 4,127.083308308602,37.569389399974
청연,,카페,커피 전문점,상일1동,상일동,서울특별시 강동구 상일동 283,서울특별시 강동구 천호대로219길 68,127.171121056978,37.5487376555858
하이오커피마포,,카페,경영 컨설팅업,성산2동,성산동,서울특별시 마포구 성산동 593-7,서울특별시 마포구 모래내로1길 4,126.904411248033,37.5644317577322
로칼커피선정릉역점,,카페,기타 비알코올 음료점업,논현2동,논현동,서울특별시 강남구 논현동 278-2,서울특별시 강남구 선릉로111길 11,127.042595444432,37.5105520595058
떼루와,,카페,커피 전문점,용답동,용답동,서울특별시 성동구 용답동 14-13,서울특별시 성동구 용답중앙15길 8,127.05341096962,37.5640985899444
설빙마포,,카페,커피 전문점,도화동,도화동,서울특별시 마포구 도화동 179-18,서울특별시 마포구 도화길 31-1,126.949337490997,37.5410346232589
달리는커피신월,,카페,커피 전문점,신월7동,신월동,서울특별시 양천구 신월동 986-7,서울특별시 양천구 지양로3길 7,126.836214639712,37.5184841880485
커브사이드스텐드로스터리,,카페,커피 전문점,가양1동,마곡동,서울특별시 강서구 마곡동 771-4,서울특별시 강서구 마곡중앙6로 21,126.829602811066,37.560821502214
